[
    {
        "name": "大阪府",
        "latitude": "34.6198813",
        "longitude": "135.490357"
    },
    {
        "name": "大分県",
        "latitude": "33.1819875",
        "longitude": "131.4270217"
    },
    {
        "name": "兵庫県",
        "latitude": "34.914934",
        "longitude": "134.860666"
    },
    {
        "name": "福井県",
        "latitude": "35.9263502",
        "longitude": "136.6068127"
    },
    {
        "name": "滋賀県",
        "latitude": "35.247154",
        "longitude": "136.109385"
    },
    {
        "name": "奈良県",
        "latitude": "34.2963089",
        "longitude": "135.8816819"
    },
    {
        "name": "岐阜県",
        "latitude": "35.7867449",
        "longitude": "137.0460777"
    },
    {
        "name": "三重県",
        "latitude": "34.7339685",
        "longitude": "136.5154489"
    },
    {
        "name": "和歌山県",
        "latitude": "33.8070292",
        "longitude": "135.5930743"
    },
    {
        "name": "東京都",
        "latitude": "35.6828387",
        "longitude": "139.7594549"
    },
    {
        "name": "福岡県",
        "latitude": "33.6251241",
        "longitude": "130.6180016"
    },
    {
        "name": "埼玉県",
        "latitude": "35.9754168",
        "longitude": "139.4160114"
    },
    {
        "name": "福島県",
        "latitude": "37.3662591",
        "longitude": "140.2511854"
    },
    {
        "name": "栃木県",
        "latitude": "36.6782167",
        "longitude": "139.8096549"
    },
    {
        "name": "青森県",
        "latitude": "40.886943",
        "longitude": "140.590121"
    },
    {
        "name": "佐賀県",
        "latitude": "33.2185408",
        "longitude": "130.1296585"
    },
    {
        "name": "長崎県",
        "latitude": "33.1154683",
        "longitude": "129.7874339"
    },
    {
        "name": "宮崎県",
        "latitude": "32.097681",
        "longitude": "131.294542"
    },
    {
        "name": "熊本県",
        "latitude": "32.6450475",
        "longitude": "130.6341345"
    },
    {
        "name": "鹿児島県",
        "latitude": "31.521587",
        "longitude": "130.5474077"
    },
    {
        "name": "群馬県",
        "latitude": "36.52198",
        "longitude": "139.033483"
    },
    {
        "name": "京都府",
        "latitude": "35.242552",
        "longitude": "135.454601"
    },
    {
        "name": "千葉県",
        "latitude": "35.549399",
        "longitude": "140.2647303"
    },
    {
        "name": "茨城県",
        "latitude": "36.2869536",
        "longitude": "140.4703384"
    },
    {
        "name": "神奈川県",
        "latitude": "35.4342935",
        "longitude": "139.374753"
    },
    {
        "name": "広島県",
        "latitude": "34.5666725",
        "longitude": "132.753565"
    },
    {
        "name": "鳥取県",
        "latitude": "35.3555075",
        "longitude": "133.8678525"
    },
    {
        "name": "島根県",
        "latitude": "34.9418212",
        "longitude": "132.537439"
    },
    {
        "name": "新潟県",
        "latitude": "37.6452283",
        "longitude": "138.7669125"
    },
    {
        "name": "長野県",
        "latitude": "36.1143945",
        "longitude": "138.0319015"
    },
    {
        "name": "愛知県",
        "latitude": "34.9991645",
        "longitude": "137.254574"
    },
    {
        "name": "山梨県",
        "latitude": "35.6399328",
        "longitude": "138.6380495"
    },
    {
        "name": "宮城県",
        "latitude": "38.3880155",
        "longitude": "140.9761025"
    },
    {
        "name": "山形県",
        "latitude": "38.4746705",
        "longitude": "140.083237"
    },
    {
        "name": "秋田県",
        "latitude": "39.6898802",
        "longitude": "140.342608"
    },
    {
        "name": "岩手県",
        "latitude": "39.5713763",
        "longitude": "141.4253574"
    },
    {
        "name": "富山県",
        "latitude": "36.6468015",
        "longitude": "137.2183531"
    },
    {
        "name": "静岡県",
        "latitude": "34.9332488",
        "longitude": "138.0955398"
    },
    {
        "name": "石川県",
        "latitude": "36.9888678",
        "longitude": "136.8163563"
    },
    {
        "name": "岡山県",
        "latitude": "34.8581334",
        "longitude": "133.7759256"
    },
    {
        "name": "徳島県",
        "latitude": "33.9196418",
        "longitude": "134.2509634"
    },
    {
        "name": "高知県",
        "latitude": "33.6569018",
        "longitude": "133.5606241"
    },
    {
        "name": "愛媛県",
        "latitude": "33.6013646",
        "longitude": "132.8185275"
    },
    {
        "name": "香川県",
        "latitude": "34.2480104",
        "longitude": "134.0586579"
    },
    {
        "name": "沖縄県",
        "latitude": "26.5707754",
        "longitude": "128.0255901"
    },
    {
        "name": "北海道",
        "latitude": "43.4519831",
        "longitude": "142.8197834"
    },
    {
        "name": "山口県",
        "latitude": "34.2379614",
        "longitude": "131.5873845"
    }
]
