[
    {
        "name": "能勢町",
        "state": "大阪府",
        "latitude": "34.9760226",
        "longitude": "135.4138614"
    },
    {
        "name": "豊能町",
        "state": "大阪府",
        "latitude": "34.923949",
        "longitude": "135.495144"
    },
    {
        "name": "茨木市",
        "state": "大阪府",
        "latitude": "34.834009",
        "longitude": "135.5539509"
    },
    {
        "name": "高槻市",
        "state": "大阪府",
        "latitude": "34.8812905",
        "longitude": "135.6012398"
    },
    {
        "name": "島本町",
        "state": "大阪府",
        "latitude": "34.8928259",
        "longitude": "135.6532529"
    },
    {
        "name": "枚方市",
        "state": "大阪府",
        "latitude": "34.818215",
        "longitude": "135.659225"
    },
    {
        "name": "箕面市",
        "state": "大阪府",
        "latitude": "34.862898",
        "longitude": "135.475719"
    },
    {
        "name": "池田市",
        "state": "大阪府",
        "latitude": "34.819371",
        "longitude": "135.433332"
    },
    {
        "name": "豊中市",
        "state": "大阪府",
        "latitude": "34.7862025",
        "longitude": "135.4737093"
    },
    {
        "name": "吹田市",
        "state": "大阪府",
        "latitude": "34.764884",
        "longitude": "135.51735"
    },
    {
        "name": "大阪市",
        "state": "大阪府",
        "latitude": "34.6937569",
        "longitude": "135.5014539"
    },
    {
        "name": "守口市",
        "state": "大阪府",
        "latitude": "34.746898",
        "longitude": "135.566663"
    },
    {
        "name": "摂津市",
        "state": "大阪府",
        "latitude": "34.782761",
        "longitude": "135.553584"
    },
    {
        "name": "交野市",
        "state": "大阪府",
        "latitude": "34.792144",
        "longitude": "135.678333"
    },
    {
        "name": "寝屋川市",
        "state": "大阪府",
        "latitude": "34.76751",
        "longitude": "135.633907"
    },
    {
        "name": "四條畷市",
        "state": "大阪府",
        "latitude": "34.730447",
        "longitude": "135.674005"
    },
    {
        "name": "門真市",
        "state": "大阪府",
        "latitude": "34.728801",
        "longitude": "135.59691"
    },
    {
        "name": "大東市",
        "state": "大阪府",
        "latitude": "34.710679",
        "longitude": "135.635478"
    },
    {
        "name": "東大阪市",
        "state": "大阪府",
        "latitude": "34.678147",
        "longitude": "135.597728"
    },
    {
        "name": "八尾市",
        "state": "大阪府",
        "latitude": "34.626275",
        "longitude": "135.605845"
    },
    {
        "name": "松原市",
        "state": "大阪府",
        "latitude": "34.580779",
        "longitude": "135.546552"
    },
    {
        "name": "柏原市",
        "state": "大阪府",
        "latitude": "34.59077",
        "longitude": "135.635035"
    },
    {
        "name": "藤井寺市",
        "state": "大阪府",
        "latitude": "34.575514",
        "longitude": "135.610936"
    },
    {
        "name": "羽曳野市",
        "state": "大阪府",
        "latitude": "34.54158",
        "longitude": "135.599097"
    },
    {
        "name": "堺市",
        "state": "大阪府",
        "latitude": "34.529124",
        "longitude": "135.50156"
    },
    {
        "name": "大阪狭山市",
        "state": "大阪府",
        "latitude": "34.503879",
        "longitude": "135.549966"
    },
    {
        "name": "富田林市",
        "state": "大阪府",
        "latitude": "34.478781",
        "longitude": "135.595519"
    },
    {
        "name": "太子町",
        "state": "大阪府",
        "latitude": "34.517724",
        "longitude": "135.646824"
    },
    {
        "name": "河南町",
        "state": "大阪府",
        "latitude": "34.481766",
        "longitude": "135.653064"
    },
    {
        "name": "千早赤阪村",
        "state": "大阪府",
        "latitude": "34.4388246",
        "longitude": "135.6355063"
    },
    {
        "name": "河内長野市",
        "state": "大阪府",
        "latitude": "34.4575979",
        "longitude": "135.5643131"
    },
    {
        "name": "和泉市",
        "state": "大阪府",
        "latitude": "34.43108",
        "longitude": "135.474789"
    },
    {
        "name": "高石市",
        "state": "大阪府",
        "latitude": "34.532059",
        "longitude": "135.424388"
    },
    {
        "name": "泉大津市",
        "state": "大阪府",
        "latitude": "34.506612",
        "longitude": "135.408793"
    },
    {
        "name": "岸和田市",
        "state": "大阪府",
        "latitude": "34.4644",
        "longitude": "135.385237"
    },
    {
        "name": "貝塚市",
        "state": "大阪府",
        "latitude": "34.432856",
        "longitude": "135.360043"
    },
    {
        "name": "熊取町",
        "state": "大阪府",
        "latitude": "34.376111",
        "longitude": "135.373116"
    },
    {
        "name": "泉佐野市",
        "state": "大阪府",
        "latitude": "34.394629",
        "longitude": "135.322725"
    },
    {
        "name": "田尻町",
        "state": "大阪府",
        "latitude": "34.4043179",
        "longitude": "135.2780365"
    },
    {
        "name": "泉南市",
        "state": "大阪府",
        "latitude": "34.3657277",
        "longitude": "135.2739742"
    },
    {
        "name": "阪南市",
        "state": "大阪府",
        "latitude": "34.3595067",
        "longitude": "135.2398397"
    },
    {
        "name": "岬町",
        "state": "大阪府",
        "latitude": "34.301357",
        "longitude": "135.1463988"
    },
    {
        "name": "忠岡町",
        "state": "大阪府",
        "latitude": "34.490529",
        "longitude": "135.400679"
    },
    {
        "name": "宇佐市",
        "state": "大分県",
        "latitude": "33.532005",
        "longitude": "131.3496745"
    },
    {
        "name": "臼杵市",
        "state": "大分県",
        "latitude": "33.1261032",
        "longitude": "131.8048454"
    },
    {
        "name": "杵築市",
        "state": "大分県",
        "latitude": "33.416849",
        "longitude": "131.6217599"
    },
    {
        "name": "九重町",
        "state": "大分県",
        "latitude": "33.197066",
        "longitude": "131.2111863"
    },
    {
        "name": "玖珠町",
        "state": "大分県",
        "latitude": "33.2831403",
        "longitude": "131.1513839"
    },
    {
        "name": "国東市",
        "state": "大分県",
        "latitude": "33.5632982",
        "longitude": "131.7322544"
    },
    {
        "name": "佐伯市",
        "state": "大分県",
        "latitude": "32.9601732",
        "longitude": "131.8996704"
    },
    {
        "name": "大分市",
        "state": "大分県",
        "latitude": "33.2393864",
        "longitude": "131.6096524"
    },
    {
        "name": "竹田市",
        "state": "大分県",
        "latitude": "32.9736821",
        "longitude": "131.3979534"
    },
    {
        "name": "中津市",
        "state": "大分県",
        "latitude": "33.5982794",
        "longitude": "131.1883225"
    },
    {
        "name": "津久見市",
        "state": "大分県",
        "latitude": "33.0722942",
        "longitude": "131.861347"
    },
    {
        "name": "日出町",
        "state": "大分県",
        "latitude": "33.3690119",
        "longitude": "131.5322622"
    },
    {
        "name": "日田市",
        "state": "大分県",
        "latitude": "33.3211655",
        "longitude": "130.9411316"
    },
    {
        "name": "姫島村",
        "state": "大分県",
        "latitude": "33.7239408",
        "longitude": "131.6457316"
    },
    {
        "name": "別府市",
        "state": "大分県",
        "latitude": "33.2845752",
        "longitude": "131.4913063"
    },
    {
        "name": "豊後高田市",
        "state": "大分県",
        "latitude": "33.5562136",
        "longitude": "131.4469025"
    },
    {
        "name": "豊後大野市",
        "state": "大分県",
        "latitude": "32.9775643",
        "longitude": "131.5841178"
    },
    {
        "name": "由布市",
        "state": "大分県",
        "latitude": "33.1800993",
        "longitude": "131.4269323"
    },
    {
        "name": "豊岡市",
        "state": "兵庫県",
        "latitude": "35.5446737",
        "longitude": "134.8201126"
    },
    {
        "name": "朝来市",
        "state": "兵庫県",
        "latitude": "35.3398402",
        "longitude": "134.8527042"
    },
    {
        "name": "香美町",
        "state": "兵庫県",
        "latitude": "35.6321694",
        "longitude": "134.6293314"
    },
    {
        "name": "養父市",
        "state": "兵庫県",
        "latitude": "35.4044647",
        "longitude": "134.7674637"
    },
    {
        "name": "新温泉町",
        "state": "兵庫県",
        "latitude": "35.6237454",
        "longitude": "134.4489425"
    },
    {
        "name": "多可町",
        "state": "兵庫県",
        "latitude": "35.0502756",
        "longitude": "134.9234305"
    },
    {
        "name": "丹波市",
        "state": "兵庫県",
        "latitude": "35.1771828",
        "longitude": "135.0363959"
    },
    {
        "name": "宍粟市",
        "state": "兵庫県",
        "latitude": "35.0043515",
        "longitude": "134.5495517"
    },
    {
        "name": "佐用町",
        "state": "兵庫県",
        "latitude": "35.0042671",
        "longitude": "134.3560128"
    },
    {
        "name": "神河町",
        "state": "兵庫県",
        "latitude": "35.0642343",
        "longitude": "134.7394848"
    },
    {
        "name": "丹波篠山市",
        "state": "兵庫県",
        "latitude": "35.075757",
        "longitude": "135.2193373"
    },
    {
        "name": "宝塚市",
        "state": "兵庫県",
        "latitude": "34.8659057",
        "longitude": "135.3257734"
    },
    {
        "name": "三田市",
        "state": "兵庫県",
        "latitude": "34.8889881",
        "longitude": "135.2284629"
    },
    {
        "name": "猪名川町",
        "state": "兵庫県",
        "latitude": "34.9463165",
        "longitude": "135.352052"
    },
    {
        "name": "西脇市",
        "state": "兵庫県",
        "latitude": "35.0125755",
        "longitude": "134.996262"
    },
    {
        "name": "姫路市",
        "state": "兵庫県",
        "latitude": "34.8153529",
        "longitude": "134.6854793"
    },
    {
        "name": "上郡町",
        "state": "兵庫県",
        "latitude": "34.8751829",
        "longitude": "134.3650286"
    },
    {
        "name": "たつの市",
        "state": "兵庫県",
        "latitude": "34.8743067",
        "longitude": "134.512583"
    },
    {
        "name": "相生市",
        "state": "兵庫県",
        "latitude": "34.8097456",
        "longitude": "134.4719626"
    },
    {
        "name": "福崎町",
        "state": "兵庫県",
        "latitude": "34.9501589",
        "longitude": "134.7598595"
    },
    {
        "name": "加西市",
        "state": "兵庫県",
        "latitude": "34.929109",
        "longitude": "134.8600505"
    },
    {
        "name": "市川町",
        "state": "兵庫県",
        "latitude": "34.9891585",
        "longitude": "134.7631772"
    },
    {
        "name": "加東市",
        "state": "兵庫県",
        "latitude": "34.930544",
        "longitude": "135.007803"
    },
    {
        "name": "西宮市",
        "state": "兵庫県",
        "latitude": "34.7386033",
        "longitude": "135.3394138"
    },
    {
        "name": "川西市",
        "state": "兵庫県",
        "latitude": "34.8699135",
        "longitude": "135.4147005"
    },
    {
        "name": "小野市",
        "state": "兵庫県",
        "latitude": "34.861365",
        "longitude": "134.9547785"
    },
    {
        "name": "三木市",
        "state": "兵庫県",
        "latitude": "34.8533422",
        "longitude": "135.0765718"
    },
    {
        "name": "神戸市",
        "state": "兵庫県",
        "latitude": "34.6932379",
        "longitude": "135.1943764"
    },
    {
        "name": "加古川市",
        "state": "兵庫県",
        "latitude": "34.786771",
        "longitude": "134.8498955"
    },
    {
        "name": "太子町",
        "state": "兵庫県",
        "latitude": "34.833372",
        "longitude": "134.5938075"
    },
    {
        "name": "赤穂市",
        "state": "兵庫県",
        "latitude": "34.7897555",
        "longitude": "134.3773595"
    },
    {
        "name": "高砂市",
        "state": "兵庫県",
        "latitude": "34.7739854",
        "longitude": "134.7880412"
    },
    {
        "name": "明石市",
        "state": "兵庫県",
        "latitude": "34.6832635",
        "longitude": "134.9476925"
    },
    {
        "name": "播磨町",
        "state": "兵庫県",
        "latitude": "34.7100885",
        "longitude": "134.8658915"
    },
    {
        "name": "稲美町",
        "state": "兵庫県",
        "latitude": "34.7504414",
        "longitude": "134.9227648"
    },
    {
        "name": "芦屋市",
        "state": "兵庫県",
        "latitude": "34.7324313",
        "longitude": "135.3069326"
    },
    {
        "name": "尼崎市",
        "state": "兵庫県",
        "latitude": "34.7288995",
        "longitude": "135.412989"
    },
    {
        "name": "伊丹市",
        "state": "兵庫県",
        "latitude": "34.786159",
        "longitude": "135.407994"
    },
    {
        "name": "淡路市",
        "state": "兵庫県",
        "latitude": "34.5014505",
        "longitude": "134.9071385"
    },
    {
        "name": "洲本市",
        "state": "兵庫県",
        "latitude": "34.3389909",
        "longitude": "134.859985"
    },
    {
        "name": "南あわじ市",
        "state": "兵庫県",
        "latitude": "34.2556695",
        "longitude": "134.762265"
    },
    {
        "name": "あわら市",
        "state": "福井県",
        "latitude": "36.2113447",
        "longitude": "136.2290431"
    },
    {
        "name": "おおい町",
        "state": "福井県",
        "latitude": "35.4814365",
        "longitude": "135.6192373"
    },
    {
        "name": "永平寺町",
        "state": "福井県",
        "latitude": "36.0928252",
        "longitude": "136.2995108"
    },
    {
        "name": "越前市",
        "state": "福井県",
        "latitude": "35.9034571",
        "longitude": "136.1689317"
    },
    {
        "name": "越前町",
        "state": "福井県",
        "latitude": "35.9747717",
        "longitude": "136.1234893"
    },
    {
        "name": "高浜町",
        "state": "福井県",
        "latitude": "35.4899705",
        "longitude": "135.5494241"
    },
    {
        "name": "坂井市",
        "state": "福井県",
        "latitude": "36.1677146",
        "longitude": "136.2262832"
    },
    {
        "name": "鯖江市",
        "state": "福井県",
        "latitude": "35.9565096",
        "longitude": "136.1843593"
    },
    {
        "name": "若狭町",
        "state": "福井県",
        "latitude": "35.5432385",
        "longitude": "135.9051269"
    },
    {
        "name": "勝山市",
        "state": "福井県",
        "latitude": "36.060766",
        "longitude": "136.5007964"
    },
    {
        "name": "小浜市",
        "state": "福井県",
        "latitude": "35.4938281",
        "longitude": "135.7446614"
    },
    {
        "name": "大野市",
        "state": "福井県",
        "latitude": "35.9797101",
        "longitude": "136.4874356"
    },
    {
        "name": "池田町",
        "state": "福井県",
        "latitude": "35.8906633",
        "longitude": "136.342306"
    },
    {
        "name": "敦賀市",
        "state": "福井県",
        "latitude": "35.6445135",
        "longitude": "136.0734634"
    },
    {
        "name": "南越前町",
        "state": "福井県",
        "latitude": "35.833286",
        "longitude": "136.1945582"
    },
    {
        "name": "美浜町",
        "state": "福井県",
        "latitude": "35.6009142",
        "longitude": "135.9431844"
    },
    {
        "name": "福井市",
        "state": "福井県",
        "latitude": "36.061751",
        "longitude": "136.2260542"
    },
    {
        "name": "大津市",
        "state": "滋賀県",
        "latitude": "35.0047096",
        "longitude": "135.8686739"
    },
    {
        "name": "東近江市",
        "state": "滋賀県",
        "latitude": "35.1227135",
        "longitude": "136.2670965"
    },
    {
        "name": "彦根市",
        "state": "滋賀県",
        "latitude": "35.254276",
        "longitude": "136.215376"
    },
    {
        "name": "高島市",
        "state": "滋賀県",
        "latitude": "35.3519223",
        "longitude": "136.0423359"
    },
    {
        "name": "近江八幡市",
        "state": "滋賀県",
        "latitude": "35.1527915",
        "longitude": "136.0687365"
    },
    {
        "name": "長浜市",
        "state": "滋賀県",
        "latitude": "35.4857724",
        "longitude": "136.294057"
    },
    {
        "name": "米原市",
        "state": "滋賀県",
        "latitude": "35.302484",
        "longitude": "136.3292136"
    },
    {
        "name": "多賀町",
        "state": "滋賀県",
        "latitude": "35.2144706",
        "longitude": "136.3264724"
    },
    {
        "name": "甲良町",
        "state": "滋賀県",
        "latitude": "35.204803",
        "longitude": "136.2641175"
    },
    {
        "name": "愛荘町",
        "state": "滋賀県",
        "latitude": "35.1680275",
        "longitude": "136.263749"
    },
    {
        "name": "豊郷町",
        "state": "滋賀県",
        "latitude": "35.197444",
        "longitude": "136.235273"
    },
    {
        "name": "野洲市",
        "state": "滋賀県",
        "latitude": "35.0932388",
        "longitude": "136.0159278"
    },
    {
        "name": "守山市",
        "state": "滋賀県",
        "latitude": "35.0852735",
        "longitude": "135.9677855"
    },
    {
        "name": "草津市",
        "state": "滋賀県",
        "latitude": "35.0340345",
        "longitude": "135.9507855"
    },
    {
        "name": "栗東市",
        "state": "滋賀県",
        "latitude": "35.0257669",
        "longitude": "135.9836707"
    },
    {
        "name": "湖南市",
        "state": "滋賀県",
        "latitude": "35.0088571",
        "longitude": "136.0722504"
    },
    {
        "name": "竜王町",
        "state": "滋賀県",
        "latitude": "35.058228",
        "longitude": "136.1183245"
    },
    {
        "name": "甲賀市",
        "state": "滋賀県",
        "latitude": "34.9625992",
        "longitude": "136.1655415"
    },
    {
        "name": "日野町",
        "state": "滋賀県",
        "latitude": "35.0129115",
        "longitude": "136.262863"
    },
    {
        "name": "広陵町",
        "state": "奈良県",
        "latitude": "34.5425776",
        "longitude": "135.7504402"
    },
    {
        "name": "安堵町",
        "state": "奈良県",
        "latitude": "34.6070761",
        "longitude": "135.7583047"
    },
    {
        "name": "川西町",
        "state": "奈良県",
        "latitude": "34.5900576",
        "longitude": "135.7751178"
    },
    {
        "name": "三宅町",
        "state": "奈良県",
        "latitude": "34.5735485",
        "longitude": "135.7762617"
    },
    {
        "name": "生駒市",
        "state": "奈良県",
        "latitude": "34.6915267",
        "longitude": "135.6961681"
    },
    {
        "name": "平群町",
        "state": "奈良県",
        "latitude": "34.6425545",
        "longitude": "135.6889046"
    },
    {
        "name": "奈良市",
        "state": "奈良県",
        "latitude": "34.6845445",
        "longitude": "135.8048359"
    },
    {
        "name": "三郷町",
        "state": "奈良県",
        "latitude": "34.5998647",
        "longitude": "135.6958694"
    },
    {
        "name": "斑鳩町",
        "state": "奈良県",
        "latitude": "34.605132",
        "longitude": "135.7315589"
    },
    {
        "name": "大和郡山市",
        "state": "奈良県",
        "latitude": "34.6493433",
        "longitude": "135.7825993"
    },
    {
        "name": "山添村",
        "state": "奈良県",
        "latitude": "34.6812793",
        "longitude": "136.043629"
    },
    {
        "name": "天理市",
        "state": "奈良県",
        "latitude": "34.5965738",
        "longitude": "135.8373696"
    },
    {
        "name": "田原本町",
        "state": "奈良県",
        "latitude": "34.5566703",
        "longitude": "135.7945539"
    },
    {
        "name": "宇陀市",
        "state": "奈良県",
        "latitude": "34.528225",
        "longitude": "135.9526888"
    },
    {
        "name": "桜井市",
        "state": "奈良県",
        "latitude": "34.5186316",
        "longitude": "135.8434724"
    },
    {
        "name": "明日香村",
        "state": "奈良県",
        "latitude": "34.4711417",
        "longitude": "135.8215426"
    },
    {
        "name": "高取町",
        "state": "奈良県",
        "latitude": "34.4500421",
        "longitude": "135.7917552"
    },
    {
        "name": "曽爾村",
        "state": "奈良県",
        "latitude": "34.5145928",
        "longitude": "136.1219109"
    },
    {
        "name": "御杖村",
        "state": "奈良県",
        "latitude": "34.4882906",
        "longitude": "136.1660847"
    },
    {
        "name": "王寺町",
        "state": "奈良県",
        "latitude": "34.5919858",
        "longitude": "135.7037145"
    },
    {
        "name": "河合町",
        "state": "奈良県",
        "latitude": "34.5782685",
        "longitude": "135.7369608"
    },
    {
        "name": "上牧町",
        "state": "奈良県",
        "latitude": "34.5623469",
        "longitude": "135.7166446"
    },
    {
        "name": "橿原市",
        "state": "奈良県",
        "latitude": "34.5094067",
        "longitude": "135.792955"
    },
    {
        "name": "香芝市",
        "state": "奈良県",
        "latitude": "34.5415175",
        "longitude": "135.6988328"
    },
    {
        "name": "大和高田市",
        "state": "奈良県",
        "latitude": "34.5150901",
        "longitude": "135.7364961"
    },
    {
        "name": "葛城市",
        "state": "奈良県",
        "latitude": "34.4888006",
        "longitude": "135.7266816"
    },
    {
        "name": "御所市",
        "state": "奈良県",
        "latitude": "34.4631877",
        "longitude": "135.740175"
    },
    {
        "name": "五條市",
        "state": "奈良県",
        "latitude": "34.351939",
        "longitude": "135.693596"
    },
    {
        "name": "東吉野村",
        "state": "奈良県",
        "latitude": "34.4032711",
        "longitude": "135.9682717"
    },
    {
        "name": "吉野町",
        "state": "奈良県",
        "latitude": "34.3946527",
        "longitude": "135.8939796"
    },
    {
        "name": "大淀町",
        "state": "奈良県",
        "latitude": "34.3952153",
        "longitude": "135.7976916"
    },
    {
        "name": "下市町",
        "state": "奈良県",
        "latitude": "34.3409811",
        "longitude": "135.7964789"
    },
    {
        "name": "川上村",
        "state": "奈良県",
        "latitude": "34.3383074",
        "longitude": "135.9546163"
    },
    {
        "name": "黒滝村",
        "state": "奈良県",
        "latitude": "34.3139813",
        "longitude": "135.8651138"
    },
    {
        "name": "天川村",
        "state": "奈良県",
        "latitude": "34.2191315",
        "longitude": "135.8584089"
    },
    {
        "name": "上北山村",
        "state": "奈良県",
        "latitude": "34.1344914",
        "longitude": "136.0002012"
    },
    {
        "name": "野迫川村",
        "state": "奈良県",
        "latitude": "34.1461511",
        "longitude": "135.6614981"
    },
    {
        "name": "十津川村",
        "state": "奈良県",
        "latitude": "33.9890597",
        "longitude": "135.7946547"
    },
    {
        "name": "下北山村",
        "state": "奈良県",
        "latitude": "34.0506538",
        "longitude": "135.9388434"
    },
    {
        "name": "安八町",
        "state": "岐阜県",
        "latitude": "35.3341832",
        "longitude": "136.6654632"
    },
    {
        "name": "羽島市",
        "state": "岐阜県",
        "latitude": "35.3199495",
        "longitude": "136.7034315"
    },
    {
        "name": "下呂市",
        "state": "岐阜県",
        "latitude": "35.8064271",
        "longitude": "137.2433187"
    },
    {
        "name": "可児市",
        "state": "岐阜県",
        "latitude": "35.4261093",
        "longitude": "137.0613166"
    },
    {
        "name": "海津市",
        "state": "岐阜県",
        "latitude": "35.2205087",
        "longitude": "136.637211"
    },
    {
        "name": "各務原市",
        "state": "岐阜県",
        "latitude": "35.3995831",
        "longitude": "136.8485648"
    },
    {
        "name": "笠松町",
        "state": "岐阜県",
        "latitude": "35.3685714",
        "longitude": "136.7639924"
    },
    {
        "name": "関ケ原町",
        "state": "岐阜県",
        "latitude": "35.3624035",
        "longitude": "136.4680349"
    },
    {
        "name": "関市",
        "state": "岐阜県",
        "latitude": "35.4958031",
        "longitude": "136.9181482"
    },
    {
        "name": "岐南町",
        "state": "岐阜県",
        "latitude": "35.38982",
        "longitude": "136.7824996"
    },
    {
        "name": "岐阜市",
        "state": "岐阜県",
        "latitude": "35.4230949",
        "longitude": "136.7627526"
    },
    {
        "name": "郡上市",
        "state": "岐阜県",
        "latitude": "35.748417",
        "longitude": "136.9643095"
    },
    {
        "name": "恵那市",
        "state": "岐阜県",
        "latitude": "35.4498094",
        "longitude": "137.4128269"
    },
    {
        "name": "御嵩町",
        "state": "岐阜県",
        "latitude": "35.4316129",
        "longitude": "137.1295844"
    },
    {
        "name": "高山市",
        "state": "岐阜県",
        "latitude": "36.1396246",
        "longitude": "137.2510322"
    },
    {
        "name": "坂祝町",
        "state": "岐阜県",
        "latitude": "35.4299044",
        "longitude": "136.9784989"
    },
    {
        "name": "山県市",
        "state": "岐阜県",
        "latitude": "35.5061049",
        "longitude": "136.7817491"
    },
    {
        "name": "七宗町",
        "state": "岐阜県",
        "latitude": "35.5425778",
        "longitude": "137.1198518"
    },
    {
        "name": "神戸町",
        "state": "岐阜県",
        "latitude": "35.4162761",
        "longitude": "136.6086526"
    },
    {
        "name": "垂井町",
        "state": "岐阜県",
        "latitude": "35.3710254",
        "longitude": "136.5289757"
    },
    {
        "name": "瑞穂市",
        "state": "岐阜県",
        "latitude": "35.3919614",
        "longitude": "136.6911268"
    },
    {
        "name": "瑞浪市",
        "state": "岐阜県",
        "latitude": "35.3619929",
        "longitude": "137.2541668"
    },
    {
        "name": "川辺町",
        "state": "岐阜県",
        "latitude": "35.4865125",
        "longitude": "137.0681577"
    },
    {
        "name": "多治見市",
        "state": "岐阜県",
        "latitude": "35.3357572",
        "longitude": "137.127762"
    },
    {
        "name": "大垣市",
        "state": "岐阜県",
        "latitude": "35.3671141",
        "longitude": "136.6179746"
    },
    {
        "name": "大野町",
        "state": "岐阜県",
        "latitude": "35.469701",
        "longitude": "136.6276115"
    },
    {
        "name": "池田町",
        "state": "岐阜県",
        "latitude": "35.4418569",
        "longitude": "136.5745631"
    },
    {
        "name": "中津川市",
        "state": "岐阜県",
        "latitude": "35.4876463",
        "longitude": "137.5005402"
    },
    {
        "name": "土岐市",
        "state": "岐阜県",
        "latitude": "35.3524854",
        "longitude": "137.1834191"
    },
    {
        "name": "東白川村",
        "state": "岐阜県",
        "latitude": "35.6426205",
        "longitude": "137.3243828"
    },
    {
        "name": "白川村",
        "state": "岐阜県",
        "latitude": "36.2712122",
        "longitude": "136.898667"
    },
    {
        "name": "白川町",
        "state": "岐阜県",
        "latitude": "35.5808397",
        "longitude": "137.1895472"
    },
    {
        "name": "八百津町",
        "state": "岐阜県",
        "latitude": "35.4755935",
        "longitude": "137.141068"
    },
    {
        "name": "飛騨市",
        "state": "岐阜県",
        "latitude": "36.2383204",
        "longitude": "137.1859372"
    },
    {
        "name": "美濃加茂市",
        "state": "岐阜県",
        "latitude": "35.4406551",
        "longitude": "137.0155052"
    },
    {
        "name": "美濃市",
        "state": "岐阜県",
        "latitude": "35.5442619",
        "longitude": "136.9075182"
    },
    {
        "name": "富加町",
        "state": "岐阜県",
        "latitude": "35.4851461",
        "longitude": "136.9762038"
    },
    {
        "name": "北方町",
        "state": "岐阜県",
        "latitude": "35.4376643",
        "longitude": "136.6846978"
    },
    {
        "name": "本巣市",
        "state": "岐阜県",
        "latitude": "35.4830261",
        "longitude": "136.6780554"
    },
    {
        "name": "揖斐川町",
        "state": "岐阜県",
        "latitude": "35.487325",
        "longitude": "136.5685564"
    },
    {
        "name": "養老町",
        "state": "岐阜県",
        "latitude": "35.3055238",
        "longitude": "136.5616373"
    },
    {
        "name": "輪之内町",
        "state": "岐阜県",
        "latitude": "35.2848875",
        "longitude": "136.6344732"
    },
    {
        "name": "いなべ市",
        "state": "三重県",
        "latitude": "35.1573562",
        "longitude": "136.5043894"
    },
    {
        "name": "伊賀市",
        "state": "三重県",
        "latitude": "34.7497761",
        "longitude": "136.1423355"
    },
    {
        "name": "伊勢市",
        "state": "三重県",
        "latitude": "34.4996115",
        "longitude": "136.7271774"
    },
    {
        "name": "紀宝町",
        "state": "三重県",
        "latitude": "33.7325783",
        "longitude": "136.0105045"
    },
    {
        "name": "紀北町",
        "state": "三重県",
        "latitude": "34.1660014",
        "longitude": "136.2253472"
    },
    {
        "name": "亀山市",
        "state": "三重県",
        "latitude": "34.8619883",
        "longitude": "136.446694"
    },
    {
        "name": "玉城町",
        "state": "三重県",
        "latitude": "34.4851095",
        "longitude": "136.6325506"
    },
    {
        "name": "熊野市",
        "state": "三重県",
        "latitude": "33.8885409",
        "longitude": "136.100411"
    },
    {
        "name": "桑名市",
        "state": "三重県",
        "latitude": "35.0666099",
        "longitude": "136.6843004"
    },
    {
        "name": "菰野町",
        "state": "三重県",
        "latitude": "35.0494225",
        "longitude": "136.4832483"
    },
    {
        "name": "御浜町",
        "state": "三重県",
        "latitude": "33.8315663",
        "longitude": "136.0549851"
    },
    {
        "name": "四日市市",
        "state": "三重県",
        "latitude": "34.9648428",
        "longitude": "136.624845"
    },
    {
        "name": "志摩市",
        "state": "三重県",
        "latitude": "34.3411841",
        "longitude": "136.8196451"
    },
    {
        "name": "松阪市",
        "state": "三重県",
        "latitude": "34.5868422",
        "longitude": "136.5412491"
    },
    {
        "name": "川越町",
        "state": "三重県",
        "latitude": "35.0178494",
        "longitude": "136.6795688"
    },
    {
        "name": "多気町",
        "state": "三重県",
        "latitude": "34.4785428",
        "longitude": "136.5113483"
    },
    {
        "name": "大紀町",
        "state": "三重県",
        "latitude": "34.3092888",
        "longitude": "136.4088915"
    },
    {
        "name": "大台町",
        "state": "三重県",
        "latitude": "34.3476784",
        "longitude": "136.3213562"
    },
    {
        "name": "朝日町",
        "state": "三重県",
        "latitude": "35.0365366",
        "longitude": "136.6629304"
    },
    {
        "name": "鳥羽市",
        "state": "三重県",
        "latitude": "34.4714464",
        "longitude": "136.8293576"
    },
    {
        "name": "津市",
        "state": "三重県",
        "latitude": "34.7341973",
        "longitude": "136.5153283"
    },
    {
        "name": "度会町",
        "state": "三重県",
        "latitude": "34.3975148",
        "longitude": "136.5808623"
    },
    {
        "name": "東員町",
        "state": "三重県",
        "latitude": "35.081943",
        "longitude": "136.5928023"
    },
    {
        "name": "南伊勢町",
        "state": "三重県",
        "latitude": "34.3670821",
        "longitude": "136.7126046"
    },
    {
        "name": "尾鷲市",
        "state": "三重県",
        "latitude": "34.0707815",
        "longitude": "136.1911394"
    },
    {
        "name": "名張市",
        "state": "三重県",
        "latitude": "34.6279243",
        "longitude": "136.1086582"
    },
    {
        "name": "明和町",
        "state": "三重県",
        "latitude": "34.5534076",
        "longitude": "136.6245293"
    },
    {
        "name": "木曽岬町",
        "state": "三重県",
        "latitude": "35.0670097",
        "longitude": "136.7408202"
    },
    {
        "name": "鈴鹿市",
        "state": "三重県",
        "latitude": "34.8696704",
        "longitude": "136.6123652"
    },
    {
        "name": "和歌山市",
        "state": "和歌山県",
        "latitude": "34.234617",
        "longitude": "135.1782181"
    },
    {
        "name": "九度山町",
        "state": "和歌山県",
        "latitude": "34.2771651",
        "longitude": "135.5723119"
    },
    {
        "name": "橋本市",
        "state": "和歌山県",
        "latitude": "34.3258291",
        "longitude": "135.6190034"
    },
    {
        "name": "岩出市",
        "state": "和歌山県",
        "latitude": "34.2558554",
        "longitude": "135.3112418"
    },
    {
        "name": "高野町",
        "state": "和歌山県",
        "latitude": "34.215788",
        "longitude": "135.5872944"
    },
    {
        "name": "紀の川市",
        "state": "和歌山県",
        "latitude": "34.2697102",
        "longitude": "135.3636692"
    },
    {
        "name": "かつらぎ町",
        "state": "和歌山県",
        "latitude": "34.2967556",
        "longitude": "135.5043891"
    },
    {
        "name": "田辺市",
        "state": "和歌山県",
        "latitude": "33.7278991",
        "longitude": "135.3777917"
    },
    {
        "name": "海南市",
        "state": "和歌山県",
        "latitude": "34.1548656",
        "longitude": "135.2092791"
    },
    {
        "name": "紀美野町",
        "state": "和歌山県",
        "latitude": "34.1669973",
        "longitude": "135.3082217"
    },
    {
        "name": "有田市",
        "state": "和歌山県",
        "latitude": "34.0832764",
        "longitude": "135.1278229"
    },
    {
        "name": "広川町",
        "state": "和歌山県",
        "latitude": "34.0295321",
        "longitude": "135.1730486"
    },
    {
        "name": "有田川町",
        "state": "和歌山県",
        "latitude": "34.0580409",
        "longitude": "135.2159129"
    },
    {
        "name": "湯浅町",
        "state": "和歌山県",
        "latitude": "34.0324017",
        "longitude": "135.1787405"
    },
    {
        "name": "御坊市",
        "state": "和歌山県",
        "latitude": "33.8913819",
        "longitude": "135.152572"
    },
    {
        "name": "由良町",
        "state": "和歌山県",
        "latitude": "33.9590686",
        "longitude": "135.118198"
    },
    {
        "name": "日高町",
        "state": "和歌山県",
        "latitude": "33.9259155",
        "longitude": "135.141139"
    },
    {
        "name": "美浜町",
        "state": "和歌山県",
        "latitude": "33.8941441",
        "longitude": "135.1335493"
    },
    {
        "name": "日高川町",
        "state": "和歌山県",
        "latitude": "33.9117304",
        "longitude": "135.1865061"
    },
    {
        "name": "印南町",
        "state": "和歌山県",
        "latitude": "33.8165925",
        "longitude": "135.2177926"
    },
    {
        "name": "みなべ町",
        "state": "和歌山県",
        "latitude": "33.7723688",
        "longitude": "135.321991"
    },
    {
        "name": "白浜町",
        "state": "和歌山県",
        "latitude": "33.6779962",
        "longitude": "135.3669663"
    },
    {
        "name": "上富田町",
        "state": "和歌山県",
        "latitude": "33.6967334",
        "longitude": "135.4289959"
    },
    {
        "name": "すさみ町",
        "state": "和歌山県",
        "latitude": "33.5507649",
        "longitude": "135.4946824"
    },
    {
        "name": "新宮市",
        "state": "和歌山県",
        "latitude": "33.7241003",
        "longitude": "135.9930029"
    },
    {
        "name": "串本町",
        "state": "和歌山県",
        "latitude": "33.4764838",
        "longitude": "135.7786103"
    },
    {
        "name": "太地町",
        "state": "和歌山県",
        "latitude": "33.5920999",
        "longitude": "135.9444352"
    },
    {
        "name": "那智勝浦町",
        "state": "和歌山県",
        "latitude": "33.6411327",
        "longitude": "135.9339638"
    },
    {
        "name": "古座川町",
        "state": "和歌山県",
        "latitude": "33.5316794",
        "longitude": "135.8150779"
    },
    {
        "name": "北山村",
        "state": "和歌山県",
        "latitude": "33.9324762",
        "longitude": "135.9690709"
    },
    {
        "name": "杉並区",
        "state": "東京都",
        "latitude": "35.6994929",
        "longitude": "139.6362876"
    },
    {
        "name": "中野区",
        "state": "東京都",
        "latitude": "35.718123",
        "longitude": "139.664468"
    },
    {
        "name": "新宿区",
        "state": "東京都",
        "latitude": "35.6937632",
        "longitude": "139.7036319"
    },
    {
        "name": "文京区",
        "state": "東京都",
        "latitude": "35.71881",
        "longitude": "139.744732"
    },
    {
        "name": "台東区",
        "state": "東京都",
        "latitude": "35.71745",
        "longitude": "139.790859"
    },
    {
        "name": "墨田区",
        "state": "東京都",
        "latitude": "35.700429",
        "longitude": "139.805017"
    },
    {
        "name": "中央区",
        "state": "東京都",
        "latitude": "35.666255",
        "longitude": "139.775565"
    },
    {
        "name": "目黒区",
        "state": "東京都",
        "latitude": "35.62125",
        "longitude": "139.688014"
    },
    {
        "name": "大田区",
        "state": "東京都",
        "latitude": "35.561206",
        "longitude": "139.715843"
    },
    {
        "name": "世田谷区",
        "state": "東京都",
        "latitude": "35.646096",
        "longitude": "139.65627"
    },
    {
        "name": "狛江市",
        "state": "東京都",
        "latitude": "35.634023",
        "longitude": "139.575977"
    },
    {
        "name": "渋谷区",
        "state": "東京都",
        "latitude": "35.6645956",
        "longitude": "139.6987107"
    },
    {
        "name": "豊島区",
        "state": "東京都",
        "latitude": "35.736156",
        "longitude": "139.714222"
    },
    {
        "name": "北区",
        "state": "東京都",
        "latitude": "35.755838",
        "longitude": "139.736687"
    },
    {
        "name": "荒川区",
        "state": "東京都",
        "latitude": "35.737529",
        "longitude": "139.78131"
    },
    {
        "name": "板橋区",
        "state": "東京都",
        "latitude": "35.774143",
        "longitude": "139.681209"
    },
    {
        "name": "練馬区",
        "state": "東京都",
        "latitude": "35.74836",
        "longitude": "139.638735"
    },
    {
        "name": "足立区",
        "state": "東京都",
        "latitude": "35.783703",
        "longitude": "139.795319"
    },
    {
        "name": "港区",
        "state": "東京都",
        "latitude": "35.6432274",
        "longitude": "139.7400553"
    },
    {
        "name": "葛飾区",
        "state": "東京都",
        "latitude": "35.751733",
        "longitude": "139.863816"
    },
    {
        "name": "千代田区",
        "state": "東京都",
        "latitude": "35.6938097",
        "longitude": "139.7532163"
    },
    {
        "name": "江戸川区",
        "state": "東京都",
        "latitude": "35.678278",
        "longitude": "139.871091"
    },
    {
        "name": "立川市",
        "state": "東京都",
        "latitude": "35.724463",
        "longitude": "139.404766"
    },
    {
        "name": "武蔵野市",
        "state": "東京都",
        "latitude": "35.712898",
        "longitude": "139.563534"
    },
    {
        "name": "三鷹市",
        "state": "東京都",
        "latitude": "35.685227",
        "longitude": "139.572916"
    },
    {
        "name": "青梅市",
        "state": "東京都",
        "latitude": "35.803601",
        "longitude": "139.238128"
    },
    {
        "name": "江東区",
        "state": "東京都",
        "latitude": "35.649154",
        "longitude": "139.81279"
    },
    {
        "name": "品川区",
        "state": "東京都",
        "latitude": "35.599252",
        "longitude": "139.73891"
    },
    {
        "name": "大島町",
        "state": "東京都",
        "latitude": "34.737515",
        "longitude": "139.400251"
    },
    {
        "name": "利島村",
        "state": "東京都",
        "latitude": "34.5279433",
        "longitude": "139.2784632"
    },
    {
        "name": "新島村",
        "state": "東京都",
        "latitude": "34.3771364",
        "longitude": "139.2568928"
    },
    {
        "name": "神津島村",
        "state": "東京都",
        "latitude": "34.2060924",
        "longitude": "139.1348719"
    },
    {
        "name": "御蔵島村",
        "state": "東京都",
        "latitude": "33.8974141",
        "longitude": "139.5956912"
    },
    {
        "name": "三宅村",
        "state": "東京都",
        "latitude": "34.0759682",
        "longitude": "139.4799509"
    },
    {
        "name": "稲城市",
        "state": "東京都",
        "latitude": "35.638229",
        "longitude": "139.507776"
    },
    {
        "name": "小笠原村",
        "state": "東京都",
        "latitude": "27.0942961",
        "longitude": "142.1918887"
    },
    {
        "name": "町田市",
        "state": "東京都",
        "latitude": "35.564193",
        "longitude": "139.442839"
    },
    {
        "name": "奥多摩町",
        "state": "東京都",
        "latitude": "35.8096602",
        "longitude": "139.0961723"
    },
    {
        "name": "あきる野市",
        "state": "東京都",
        "latitude": "35.731042",
        "longitude": "139.217028"
    },
    {
        "name": "日の出町",
        "state": "東京都",
        "latitude": "35.758719",
        "longitude": "139.223819"
    },
    {
        "name": "檜原村",
        "state": "東京都",
        "latitude": "35.725567",
        "longitude": "139.10026"
    },
    {
        "name": "羽村市",
        "state": "東京都",
        "latitude": "35.764833",
        "longitude": "139.307862"
    },
    {
        "name": "八王子市",
        "state": "東京都",
        "latitude": "35.660175",
        "longitude": "139.283071"
    },
    {
        "name": "昭島市",
        "state": "東京都",
        "latitude": "35.70248",
        "longitude": "139.350065"
    },
    {
        "name": "武蔵村山市",
        "state": "東京都",
        "latitude": "35.756509",
        "longitude": "139.385637"
    },
    {
        "name": "瑞穂町",
        "state": "東京都",
        "latitude": "35.784056",
        "longitude": "139.345734"
    },
    {
        "name": "福生市",
        "state": "東京都",
        "latitude": "35.737188",
        "longitude": "139.334682"
    },
    {
        "name": "多摩市",
        "state": "東京都",
        "latitude": "35.637188",
        "longitude": "139.443503"
    },
    {
        "name": "日野市",
        "state": "東京都",
        "latitude": "35.6610715",
        "longitude": "139.4147051"
    },
    {
        "name": "国分寺市",
        "state": "東京都",
        "latitude": "35.709674",
        "longitude": "139.454224"
    },
    {
        "name": "国立市",
        "state": "東京都",
        "latitude": "35.681991",
        "longitude": "139.43624"
    },
    {
        "name": "小平市",
        "state": "東京都",
        "latitude": "35.72522",
        "longitude": "139.476606"
    },
    {
        "name": "東大和市",
        "state": "東京都",
        "latitude": "35.740869",
        "longitude": "139.428831"
    },
    {
        "name": "東村山市",
        "state": "東京都",
        "latitude": "35.768929",
        "longitude": "139.484539"
    },
    {
        "name": "小金井市",
        "state": "東京都",
        "latitude": "35.7041083",
        "longitude": "139.5106759"
    },
    {
        "name": "府中市",
        "state": "東京都",
        "latitude": "35.6611119",
        "longitude": "139.4734451"
    },
    {
        "name": "東久留米市",
        "state": "東京都",
        "latitude": "35.752546",
        "longitude": "139.519089"
    },
    {
        "name": "清瀬市",
        "state": "東京都",
        "latitude": "35.785483",
        "longitude": "139.531253"
    },
    {
        "name": "西東京市",
        "state": "東京都",
        "latitude": "35.73546",
        "longitude": "139.550228"
    },
    {
        "name": "調布市",
        "state": "東京都",
        "latitude": "35.660036",
        "longitude": "139.554815"
    },
    {
        "name": "八丈町",
        "state": "東京都",
        "latitude": "33.1069602",
        "longitude": "139.76731071825117"
    },
    {
        "name": "青ヶ島村",
        "state": "東京都",
        "latitude": "32.46188685",
        "longitude": "139.76765480216105"
    },
    {
        "name": "秩父市",
        "state": "埼玉県",
        "latitude": "35.9914509",
        "longitude": "139.0857612"
    },
    {
        "name": "小鹿野町",
        "state": "埼玉県",
        "latitude": "36.0171181",
        "longitude": "139.008513"
    },
    {
        "name": "さいたま市",
        "state": "埼玉県",
        "latitude": "35.8616402",
        "longitude": "139.6457957"
    },
    {
        "name": "横瀬町",
        "state": "埼玉県",
        "latitude": "35.9873227",
        "longitude": "139.0999999"
    },
    {
        "name": "飯能市",
        "state": "埼玉県",
        "latitude": "35.8556902",
        "longitude": "139.3276436"
    },
    {
        "name": "入間市",
        "state": "埼玉県",
        "latitude": "35.8358142",
        "longitude": "139.3909293"
    },
    {
        "name": "所沢市",
        "state": "埼玉県",
        "latitude": "35.7994271",
        "longitude": "139.4687478"
    },
    {
        "name": "新座市",
        "state": "埼玉県",
        "latitude": "35.7934426",
        "longitude": "139.5652031"
    },
    {
        "name": "日高市",
        "state": "埼玉県",
        "latitude": "35.9077667",
        "longitude": "139.3390385"
    },
    {
        "name": "毛呂山町",
        "state": "埼玉県",
        "latitude": "35.9415688",
        "longitude": "139.316039"
    },
    {
        "name": "狭山市",
        "state": "埼玉県",
        "latitude": "35.8528971",
        "longitude": "139.4122999"
    },
    {
        "name": "越生町",
        "state": "埼玉県",
        "latitude": "35.9645056",
        "longitude": "139.2941313"
    },
    {
        "name": "和光市",
        "state": "埼玉県",
        "latitude": "35.7817053",
        "longitude": "139.6058692"
    },
    {
        "name": "戸田市",
        "state": "埼玉県",
        "latitude": "35.8175874",
        "longitude": "139.6778944"
    },
    {
        "name": "朝霞市",
        "state": "埼玉県",
        "latitude": "35.7970861",
        "longitude": "139.593733"
    },
    {
        "name": "蕨市",
        "state": "埼玉県",
        "latitude": "35.8256398",
        "longitude": "139.6797632"
    },
    {
        "name": "三郷市",
        "state": "埼玉県",
        "latitude": "35.830091",
        "longitude": "139.8722251"
    },
    {
        "name": "八潮市",
        "state": "埼玉県",
        "latitude": "35.8226404",
        "longitude": "139.8386867"
    },
    {
        "name": "川口市",
        "state": "埼玉県",
        "latitude": "35.8078228",
        "longitude": "139.7241054"
    },
    {
        "name": "草加市",
        "state": "埼玉県",
        "latitude": "35.8262233",
        "longitude": "139.8061784"
    },
    {
        "name": "吉川市",
        "state": "埼玉県",
        "latitude": "35.8962831",
        "longitude": "139.854504"
    },
    {
        "name": "春日部市",
        "state": "埼玉県",
        "latitude": "35.9757957",
        "longitude": "139.752019"
    },
    {
        "name": "松伏町",
        "state": "埼玉県",
        "latitude": "35.9261958",
        "longitude": "139.8158814"
    },
    {
        "name": "越谷市",
        "state": "埼玉県",
        "latitude": "35.8903993",
        "longitude": "139.7908633"
    },
    {
        "name": "加須市",
        "state": "埼玉県",
        "latitude": "36.1308572",
        "longitude": "139.603225"
    },
    {
        "name": "久喜市",
        "state": "埼玉県",
        "latitude": "36.0618828",
        "longitude": "139.6667081"
    },
    {
        "name": "三芳町",
        "state": "埼玉県",
        "latitude": "35.8280709",
        "longitude": "139.526484"
    },
    {
        "name": "宮代町",
        "state": "埼玉県",
        "latitude": "36.0227087",
        "longitude": "139.722628"
    },
    {
        "name": "幸手市",
        "state": "埼玉県",
        "latitude": "36.0778827",
        "longitude": "139.7254086"
    },
    {
        "name": "杉戸町",
        "state": "埼玉県",
        "latitude": "36.0258483",
        "longitude": "139.7367449"
    },
    {
        "name": "羽生市",
        "state": "埼玉県",
        "latitude": "36.1724023",
        "longitude": "139.5484797"
    },
    {
        "name": "ふじみ野市",
        "state": "埼玉県",
        "latitude": "35.8795476",
        "longitude": "139.519616"
    },
    {
        "name": "富士見市",
        "state": "埼玉県",
        "latitude": "35.8565545",
        "longitude": "139.5490731"
    },
    {
        "name": "川越市",
        "state": "埼玉県",
        "latitude": "35.9251145",
        "longitude": "139.4856927"
    },
    {
        "name": "志木市",
        "state": "埼玉県",
        "latitude": "35.8365194",
        "longitude": "139.5800351"
    },
    {
        "name": "鶴ヶ島市",
        "state": "埼玉県",
        "latitude": "35.9346812",
        "longitude": "139.3929735"
    },
    {
        "name": "上尾市",
        "state": "埼玉県",
        "latitude": "35.9774082",
        "longitude": "139.5930504"
    },
    {
        "name": "伊奈町",
        "state": "埼玉県",
        "latitude": "36.0001322",
        "longitude": "139.6240878"
    },
    {
        "name": "吉見町",
        "state": "埼玉県",
        "latitude": "36.0398422",
        "longitude": "139.4535343"
    },
    {
        "name": "坂戸市",
        "state": "埼玉県",
        "latitude": "35.9572312",
        "longitude": "139.4029048"
    },
    {
        "name": "川島町",
        "state": "埼玉県",
        "latitude": "35.9924411",
        "longitude": "139.4840808"
    },
    {
        "name": "東松山市",
        "state": "埼玉県",
        "latitude": "36.0421523",
        "longitude": "139.399796"
    },
    {
        "name": "桶川市",
        "state": "埼玉県",
        "latitude": "36.002152",
        "longitude": "139.541356"
    },
    {
        "name": "蓮田市",
        "state": "埼玉県",
        "latitude": "35.994092",
        "longitude": "139.6632547"
    },
    {
        "name": "行田市",
        "state": "埼玉県",
        "latitude": "36.1386052",
        "longitude": "139.4559001"
    },
    {
        "name": "鴻巣市",
        "state": "埼玉県",
        "latitude": "36.0657583",
        "longitude": "139.5221055"
    },
    {
        "name": "ときがわ町",
        "state": "埼玉県",
        "latitude": "36.0085308",
        "longitude": "139.2966965"
    },
    {
        "name": "嵐山町",
        "state": "埼玉県",
        "latitude": "36.0564172",
        "longitude": "139.320248"
    },
    {
        "name": "滑川町",
        "state": "埼玉県",
        "latitude": "36.0671216",
        "longitude": "139.3610215"
    },
    {
        "name": "熊谷市",
        "state": "埼玉県",
        "latitude": "36.1472472",
        "longitude": "139.3886141"
    },
    {
        "name": "鳩山町",
        "state": "埼玉県",
        "latitude": "35.9815165",
        "longitude": "139.3340868"
    },
    {
        "name": "上里町",
        "state": "埼玉県",
        "latitude": "36.2515475",
        "longitude": "139.1446912"
    },
    {
        "name": "寄居町",
        "state": "埼玉県",
        "latitude": "36.1182741",
        "longitude": "139.1927779"
    },
    {
        "name": "小川町",
        "state": "埼玉県",
        "latitude": "36.0571535",
        "longitude": "139.2628499"
    },
    {
        "name": "本庄市",
        "state": "埼玉県",
        "latitude": "36.2435937",
        "longitude": "139.1916278"
    },
    {
        "name": "東秩父村",
        "state": "埼玉県",
        "latitude": "36.0582601",
        "longitude": "139.1947825"
    },
    {
        "name": "皆野町",
        "state": "埼玉県",
        "latitude": "36.0708269",
        "longitude": "139.0986454"
    },
    {
        "name": "神川町",
        "state": "埼玉県",
        "latitude": "36.2134738",
        "longitude": "139.1019026"
    },
    {
        "name": "美里町",
        "state": "埼玉県",
        "latitude": "36.1771628",
        "longitude": "139.1816793"
    },
    {
        "name": "長瀞町",
        "state": "埼玉県",
        "latitude": "36.1146759",
        "longitude": "139.1096479"
    },
    {
        "name": "Saitama-shi",
        "state": "埼玉県",
        "latitude": "35.935143",
        "longitude": "139.54369828398058"
    },
    {
        "name": "白岡市",
        "state": "埼玉県",
        "latitude": "36.0186181",
        "longitude": "139.677099"
    },
    {
        "name": "北本市",
        "state": "埼玉県",
        "latitude": "36.0268711",
        "longitude": "139.5301389"
    },
    {
        "name": "深谷市",
        "state": "埼玉県",
        "latitude": "36.1974016",
        "longitude": "139.2816997"
    },
    {
        "name": "喜多方市",
        "state": "福島県",
        "latitude": "37.6508057",
        "longitude": "139.8749387"
    },
    {
        "name": "福島市",
        "state": "福島県",
        "latitude": "37.760777",
        "longitude": "140.4745807"
    },
    {
        "name": "北塩原村",
        "state": "福島県",
        "latitude": "37.6558156",
        "longitude": "139.9376936"
    },
    {
        "name": "猪苗代町",
        "state": "福島県",
        "latitude": "37.5577721",
        "longitude": "140.1046454"
    },
    {
        "name": "西会津町",
        "state": "福島県",
        "latitude": "37.5888522",
        "longitude": "139.6474278"
    },
    {
        "name": "会津坂下町",
        "state": "福島県",
        "latitude": "37.5614676",
        "longitude": "139.8217696"
    },
    {
        "name": "湯川村",
        "state": "福島県",
        "latitude": "37.5657646",
        "longitude": "139.886937"
    },
    {
        "name": "会津若松市",
        "state": "福島県",
        "latitude": "37.48043",
        "longitude": "139.942135"
    },
    {
        "name": "磐梯町",
        "state": "福島県",
        "latitude": "37.5621397",
        "longitude": "139.9888201"
    },
    {
        "name": "柳津町",
        "state": "福島県",
        "latitude": "37.5261372",
        "longitude": "139.7193375"
    },
    {
        "name": "金山町",
        "state": "福島県",
        "latitude": "37.4538013",
        "longitude": "139.5242351"
    },
    {
        "name": "二本松市",
        "state": "福島県",
        "latitude": "37.5850396",
        "longitude": "140.4313889"
    },
    {
        "name": "郡山市",
        "state": "福島県",
        "latitude": "37.404937",
        "longitude": "140.333381"
    },
    {
        "name": "桑折町",
        "state": "福島県",
        "latitude": "37.8494899",
        "longitude": "140.5165329"
    },
    {
        "name": "伊達市",
        "state": "福島県",
        "latitude": "37.8191044",
        "longitude": "140.5624838"
    },
    {
        "name": "川俣町",
        "state": "福島県",
        "latitude": "37.6649698",
        "longitude": "140.598606"
    },
    {
        "name": "国見町",
        "state": "福島県",
        "latitude": "37.8769816",
        "longitude": "140.5493321"
    },
    {
        "name": "相馬市",
        "state": "福島県",
        "latitude": "37.7966579",
        "longitude": "140.9195032"
    },
    {
        "name": "新地町",
        "state": "福島県",
        "latitude": "37.8763078",
        "longitude": "140.9197679"
    },
    {
        "name": "飯舘村",
        "state": "福島県",
        "latitude": "37.6790177",
        "longitude": "140.7351579"
    },
    {
        "name": "南相馬市",
        "state": "福島県",
        "latitude": "37.6421923",
        "longitude": "140.9572649"
    },
    {
        "name": "浪江町",
        "state": "福島県",
        "latitude": "37.4945619",
        "longitude": "141.0005837"
    },
    {
        "name": "三島町",
        "state": "福島県",
        "latitude": "37.4702241",
        "longitude": "139.6443025"
    },
    {
        "name": "昭和村",
        "state": "福島県",
        "latitude": "37.3352574",
        "longitude": "139.6105609"
    },
    {
        "name": "会津美里町",
        "state": "福島県",
        "latitude": "37.4598882",
        "longitude": "139.8410088"
    },
    {
        "name": "下郷町",
        "state": "福島県",
        "latitude": "37.2556444",
        "longitude": "139.8724692"
    },
    {
        "name": "天栄村",
        "state": "福島県",
        "latitude": "37.2554213",
        "longitude": "140.2470711"
    },
    {
        "name": "南会津町",
        "state": "福島県",
        "latitude": "37.2003647",
        "longitude": "139.7731337"
    },
    {
        "name": "只見町",
        "state": "福島県",
        "latitude": "37.3488553",
        "longitude": "139.3161722"
    },
    {
        "name": "檜枝岐村",
        "state": "福島県",
        "latitude": "37.0242346",
        "longitude": "139.3889296"
    },
    {
        "name": "西郷村",
        "state": "福島県",
        "latitude": "37.1416581",
        "longitude": "140.1553467"
    },
    {
        "name": "葛尾村",
        "state": "福島県",
        "latitude": "37.5035966",
        "longitude": "140.7644984"
    },
    {
        "name": "田村市",
        "state": "福島県",
        "latitude": "37.4405603",
        "longitude": "140.5764547"
    },
    {
        "name": "大熊町",
        "state": "福島県",
        "latitude": "37.3813068",
        "longitude": "140.9587132"
    },
    {
        "name": "双葉町",
        "state": "福島県",
        "latitude": "37.4507756",
        "longitude": "141.0143226"
    },
    {
        "name": "川内村",
        "state": "福島県",
        "latitude": "37.3375509",
        "longitude": "140.8094622"
    },
    {
        "name": "富岡町",
        "state": "福島県",
        "latitude": "37.3451804",
        "longitude": "141.0089089"
    },
    {
        "name": "楢葉町",
        "state": "福島県",
        "latitude": "37.2826093",
        "longitude": "140.9933446"
    },
    {
        "name": "いわき市",
        "state": "福島県",
        "latitude": "37.0504227",
        "longitude": "140.8876338"
    },
    {
        "name": "広野町",
        "state": "福島県",
        "latitude": "37.2143635",
        "longitude": "140.994385"
    },
    {
        "name": "大玉村",
        "state": "福島県",
        "latitude": "37.5343459",
        "longitude": "140.3711865"
    },
    {
        "name": "本宮市",
        "state": "福島県",
        "latitude": "37.5131394",
        "longitude": "140.3939799"
    },
    {
        "name": "三春町",
        "state": "福島県",
        "latitude": "37.4409337",
        "longitude": "140.4926213"
    },
    {
        "name": "須賀川市",
        "state": "福島県",
        "latitude": "37.2867857",
        "longitude": "140.37293"
    },
    {
        "name": "小野町",
        "state": "福島県",
        "latitude": "37.2868108",
        "longitude": "140.6262634"
    },
    {
        "name": "平田村",
        "state": "福島県",
        "latitude": "37.2219658",
        "longitude": "140.5756791"
    },
    {
        "name": "鏡石町",
        "state": "福島県",
        "latitude": "37.2527196",
        "longitude": "140.3436649"
    },
    {
        "name": "玉川村",
        "state": "福島県",
        "latitude": "37.210742",
        "longitude": "140.4089622"
    },
    {
        "name": "白河市",
        "state": "福島県",
        "latitude": "37.1263397",
        "longitude": "140.2107192"
    },
    {
        "name": "矢吹町",
        "state": "福島県",
        "latitude": "37.2012666",
        "longitude": "140.3387751"
    },
    {
        "name": "石川町",
        "state": "福島県",
        "latitude": "37.1570412",
        "longitude": "140.4468974"
    },
    {
        "name": "古殿町",
        "state": "福島県",
        "latitude": "37.0892169",
        "longitude": "140.5557062"
    },
    {
        "name": "泉崎村",
        "state": "福島県",
        "latitude": "37.1537384",
        "longitude": "140.3034978"
    },
    {
        "name": "中島村",
        "state": "福島県",
        "latitude": "37.1494377",
        "longitude": "140.3508748"
    },
    {
        "name": "浅川町",
        "state": "福島県",
        "latitude": "37.0809885",
        "longitude": "140.4127953"
    },
    {
        "name": "鮫川村",
        "state": "福島県",
        "latitude": "37.0421787",
        "longitude": "140.5096197"
    },
    {
        "name": "棚倉町",
        "state": "福島県",
        "latitude": "37.0299106",
        "longitude": "140.3795451"
    },
    {
        "name": "塙町",
        "state": "福島県",
        "latitude": "36.9571857",
        "longitude": "140.4093643"
    },
    {
        "name": "矢祭町",
        "state": "福島県",
        "latitude": "36.8718111",
        "longitude": "140.4252144"
    },
    {
        "name": "小山市",
        "state": "栃木県",
        "latitude": "36.3147373",
        "longitude": "139.800148"
    },
    {
        "name": "下野市",
        "state": "栃木県",
        "latitude": "36.395081",
        "longitude": "139.8518331"
    },
    {
        "name": "真岡市",
        "state": "栃木県",
        "latitude": "36.4404452",
        "longitude": "140.0131578"
    },
    {
        "name": "上三川町",
        "state": "栃木県",
        "latitude": "36.4393158",
        "longitude": "139.9098338"
    },
    {
        "name": "高根沢町",
        "state": "栃木県",
        "latitude": "36.630944",
        "longitude": "139.9866414"
    },
    {
        "name": "日光市",
        "state": "栃木県",
        "latitude": "36.7196755",
        "longitude": "139.6989028"
    },
    {
        "name": "那須塩原市",
        "state": "栃木県",
        "latitude": "36.9621905",
        "longitude": "140.0468255"
    },
    {
        "name": "那須町",
        "state": "栃木県",
        "latitude": "37.019786",
        "longitude": "140.1208822"
    },
    {
        "name": "さくら市",
        "state": "栃木県",
        "latitude": "36.6852925",
        "longitude": "139.9668761"
    },
    {
        "name": "宇都宮市",
        "state": "栃木県",
        "latitude": "36.5549677",
        "longitude": "139.8828776"
    },
    {
        "name": "益子町",
        "state": "栃木県",
        "latitude": "36.4673502",
        "longitude": "140.0935974"
    },
    {
        "name": "塩谷町",
        "state": "栃木県",
        "latitude": "36.7776275",
        "longitude": "139.85063"
    },
    {
        "name": "佐野市",
        "state": "栃木県",
        "latitude": "36.3144119",
        "longitude": "139.578429"
    },
    {
        "name": "市貝町",
        "state": "栃木県",
        "latitude": "36.5432544",
        "longitude": "140.1021523"
    },
    {
        "name": "鹿沼市",
        "state": "栃木県",
        "latitude": "36.5672916",
        "longitude": "139.7452455"
    },
    {
        "name": "壬生町",
        "state": "栃木県",
        "latitude": "36.4273531",
        "longitude": "139.804607"
    },
    {
        "name": "足利市",
        "state": "栃木県",
        "latitude": "36.3401914",
        "longitude": "139.4497731"
    },
    {
        "name": "大田原市",
        "state": "栃木県",
        "latitude": "36.87103",
        "longitude": "140.0154048"
    },
    {
        "name": "栃木市",
        "state": "栃木県",
        "latitude": "36.3818177",
        "longitude": "139.733591"
    },
    {
        "name": "那珂川町",
        "state": "栃木県",
        "latitude": "36.7364262",
        "longitude": "140.1726462"
    },
    {
        "name": "那須烏山市",
        "state": "栃木県",
        "latitude": "36.657187",
        "longitude": "140.1518102"
    },
    {
        "name": "芳賀町",
        "state": "栃木県",
        "latitude": "36.5482739",
        "longitude": "140.0583242"
    },
    {
        "name": "茂木町",
        "state": "栃木県",
        "latitude": "36.532164",
        "longitude": "140.1874057"
    },
    {
        "name": "野木町",
        "state": "栃木県",
        "latitude": "36.2331301",
        "longitude": "139.7407775"
    },
    {
        "name": "矢板市",
        "state": "栃木県",
        "latitude": "36.8066705",
        "longitude": "139.9236292"
    },
    {
        "name": "大間町",
        "state": "青森県",
        "latitude": "41.526732",
        "longitude": "140.9074349"
    },
    {
        "name": "風間浦村",
        "state": "青森県",
        "latitude": "41.4875324",
        "longitude": "140.995768"
    },
    {
        "name": "むつ市",
        "state": "青森県",
        "latitude": "41.2928444",
        "longitude": "141.1831247"
    },
    {
        "name": "佐井村",
        "state": "青森県",
        "latitude": "41.4298178",
        "longitude": "140.858905"
    },
    {
        "name": "東通村",
        "state": "青森県",
        "latitude": "41.277613",
        "longitude": "141.3290738"
    },
    {
        "name": "横浜町",
        "state": "青森県",
        "latitude": "41.0830879",
        "longitude": "141.2478217"
    },
    {
        "name": "六ヶ所村",
        "state": "青森県",
        "latitude": "40.9670787",
        "longitude": "141.374092"
    },
    {
        "name": "野辺地町",
        "state": "青森県",
        "latitude": "40.864452",
        "longitude": "141.1289264"
    },
    {
        "name": "東北町",
        "state": "青森県",
        "latitude": "40.7279915",
        "longitude": "141.2579371"
    },
    {
        "name": "三沢市",
        "state": "青森県",
        "latitude": "40.6829377",
        "longitude": "141.3692113"
    },
    {
        "name": "七戸町",
        "state": "青森県",
        "latitude": "40.7446987",
        "longitude": "141.1583939"
    },
    {
        "name": "平内町",
        "state": "青森県",
        "latitude": "40.9260344",
        "longitude": "140.9562206"
    },
    {
        "name": "十和田市",
        "state": "青森県",
        "latitude": "40.6127405",
        "longitude": "141.206023"
    },
    {
        "name": "六戸町",
        "state": "青森県",
        "latitude": "40.6094491",
        "longitude": "141.3250672"
    },
    {
        "name": "青森市",
        "state": "青森県",
        "latitude": "40.8221517",
        "longitude": "140.7471238"
    },
    {
        "name": "五戸町",
        "state": "青森県",
        "latitude": "40.531081",
        "longitude": "141.3078149"
    },
    {
        "name": "おいらせ町",
        "state": "青森県",
        "latitude": "40.5990771",
        "longitude": "141.3980339"
    },
    {
        "name": "八戸市",
        "state": "青森県",
        "latitude": "40.5122388",
        "longitude": "141.4882959"
    },
    {
        "name": "平川市",
        "state": "青森県",
        "latitude": "40.5840494",
        "longitude": "140.5665126"
    },
    {
        "name": "黒石市",
        "state": "青森県",
        "latitude": "40.6423427",
        "longitude": "140.5951263"
    },
    {
        "name": "藤崎町",
        "state": "青森県",
        "latitude": "40.6561312",
        "longitude": "140.5029227"
    },
    {
        "name": "板柳町",
        "state": "青森県",
        "latitude": "40.696039",
        "longitude": "140.4579114"
    },
    {
        "name": "五所川原市",
        "state": "青森県",
        "latitude": "40.8076098",
        "longitude": "140.4459462"
    },
    {
        "name": "蓬田村",
        "state": "青森県",
        "latitude": "40.9718994",
        "longitude": "140.6560574"
    },
    {
        "name": "中泊町",
        "state": "青森県",
        "latitude": "40.9651158",
        "longitude": "140.4398921"
    },
    {
        "name": "外ヶ浜町",
        "state": "青森県",
        "latitude": "41.0430897",
        "longitude": "140.6318351"
    },
    {
        "name": "今別町",
        "state": "青森県",
        "latitude": "41.1819544",
        "longitude": "140.4819199"
    },
    {
        "name": "つがる市",
        "state": "青森県",
        "latitude": "40.8087605",
        "longitude": "140.3803311"
    },
    {
        "name": "鶴田町",
        "state": "青森県",
        "latitude": "40.7587697",
        "longitude": "140.4288"
    },
    {
        "name": "弘前市",
        "state": "青森県",
        "latitude": "40.6030543",
        "longitude": "140.4640389"
    },
    {
        "name": "鰺ヶ沢町",
        "state": "青森県",
        "latitude": "40.7798858",
        "longitude": "140.2086692"
    },
    {
        "name": "西目屋村",
        "state": "青森県",
        "latitude": "40.5766195",
        "longitude": "140.2968828"
    },
    {
        "name": "深浦町",
        "state": "青森県",
        "latitude": "40.6473448",
        "longitude": "139.927454"
    },
    {
        "name": "田舎館村",
        "state": "青森県",
        "latitude": "40.6313393",
        "longitude": "140.5502089"
    },
    {
        "name": "大鰐町",
        "state": "青森県",
        "latitude": "40.5181996",
        "longitude": "140.5682627"
    },
    {
        "name": "新郷村",
        "state": "青森県",
        "latitude": "40.4655556",
        "longitude": "141.1735318"
    },
    {
        "name": "南部町",
        "state": "青森県",
        "latitude": "40.4665818",
        "longitude": "141.3820348"
    },
    {
        "name": "三戸町",
        "state": "青森県",
        "latitude": "40.3782546",
        "longitude": "141.2587719"
    },
    {
        "name": "田子町",
        "state": "青森県",
        "latitude": "40.3400147",
        "longitude": "141.1523602"
    },
    {
        "name": "階上町",
        "state": "青森県",
        "latitude": "40.4522877",
        "longitude": "141.6211827"
    },
    {
        "name": "みやき町",
        "state": "佐賀県",
        "latitude": "33.3275817",
        "longitude": "130.4548945"
    },
    {
        "name": "伊万里市",
        "state": "佐賀県",
        "latitude": "33.2644557",
        "longitude": "129.8808439"
    },
    {
        "name": "基山町",
        "state": "佐賀県",
        "latitude": "33.4277739",
        "longitude": "130.5204563"
    },
    {
        "name": "嬉野市",
        "state": "佐賀県",
        "latitude": "33.1279109",
        "longitude": "130.0599074"
    },
    {
        "name": "吉野ヶ里町",
        "state": "佐賀県",
        "latitude": "33.3210026",
        "longitude": "130.3997977"
    },
    {
        "name": "玄海町",
        "state": "佐賀県",
        "latitude": "33.4787713",
        "longitude": "129.867023"
    },
    {
        "name": "江北町",
        "state": "佐賀県",
        "latitude": "33.2166755",
        "longitude": "130.1547003"
    },
    {
        "name": "佐賀市",
        "state": "佐賀県",
        "latitude": "33.2639134",
        "longitude": "130.3008378"
    },
    {
        "name": "鹿島市",
        "state": "佐賀県",
        "latitude": "33.1039529",
        "longitude": "130.0985169"
    },
    {
        "name": "小城市",
        "state": "佐賀県",
        "latitude": "33.2738076",
        "longitude": "130.2171043"
    },
    {
        "name": "上峰町",
        "state": "佐賀県",
        "latitude": "33.3519486",
        "longitude": "130.4194738"
    },
    {
        "name": "神埼市",
        "state": "佐賀県",
        "latitude": "33.3107434",
        "longitude": "130.3730748"
    },
    {
        "name": "多久市",
        "state": "佐賀県",
        "latitude": "33.2885725",
        "longitude": "130.1100243"
    },
    {
        "name": "太良町",
        "state": "佐賀県",
        "latitude": "32.9958775",
        "longitude": "130.1483389"
    },
    {
        "name": "大町町",
        "state": "佐賀県",
        "latitude": "33.2196247",
        "longitude": "130.1164314"
    },
    {
        "name": "鳥栖市",
        "state": "佐賀県",
        "latitude": "33.3778536",
        "longitude": "130.5061966"
    },
    {
        "name": "唐津市",
        "state": "佐賀県",
        "latitude": "33.4503405",
        "longitude": "129.9679345"
    },
    {
        "name": "白石町",
        "state": "佐賀県",
        "latitude": "33.1625036",
        "longitude": "130.1427305"
    },
    {
        "name": "武雄市",
        "state": "佐賀県",
        "latitude": "33.1935518",
        "longitude": "130.0194484"
    },
    {
        "name": "有田町",
        "state": "佐賀県",
        "latitude": "33.192301",
        "longitude": "129.8669613"
    },
    {
        "name": "壱岐市",
        "state": "長崎県",
        "latitude": "33.7500515",
        "longitude": "129.6913078"
    },
    {
        "name": "雲仙市",
        "state": "長崎県",
        "latitude": "32.83515",
        "longitude": "130.18772"
    },
    {
        "name": "五島市",
        "state": "長崎県",
        "latitude": "32.6951424",
        "longitude": "128.8408104"
    },
    {
        "name": "佐々町",
        "state": "長崎県",
        "latitude": "33.2175801",
        "longitude": "129.6483486"
    },
    {
        "name": "佐世保市",
        "state": "長崎県",
        "latitude": "33.1799965",
        "longitude": "129.7152872"
    },
    {
        "name": "時津町",
        "state": "長崎県",
        "latitude": "32.8338049",
        "longitude": "129.830303"
    },
    {
        "name": "小値賀町",
        "state": "長崎県",
        "latitude": "33.2007809",
        "longitude": "129.0640894"
    },
    {
        "name": "松浦市",
        "state": "長崎県",
        "latitude": "33.3410429",
        "longitude": "129.7088042"
    },
    {
        "name": "新上五島町",
        "state": "長崎県",
        "latitude": "32.956429",
        "longitude": "129.081617"
    },
    {
        "name": "西海市",
        "state": "長崎県",
        "latitude": "32.9331936",
        "longitude": "129.6430585"
    },
    {
        "name": "川棚町",
        "state": "長崎県",
        "latitude": "33.0745898",
        "longitude": "129.8532263"
    },
    {
        "name": "対馬市",
        "state": "長崎県",
        "latitude": "34.2053717",
        "longitude": "129.2946547"
    },
    {
        "name": "大村市",
        "state": "長崎県",
        "latitude": "32.9002281",
        "longitude": "129.9585055"
    },
    {
        "name": "長崎市",
        "state": "長崎県",
        "latitude": "32.7501611",
        "longitude": "129.8781002"
    },
    {
        "name": "長与町",
        "state": "長崎県",
        "latitude": "32.8242152",
        "longitude": "129.8860926"
    },
    {
        "name": "島原市",
        "state": "長崎県",
        "latitude": "32.788084",
        "longitude": "130.3705411"
    },
    {
        "name": "東彼杵町",
        "state": "長崎県",
        "latitude": "33.0306548",
        "longitude": "129.9622465"
    },
    {
        "name": "南島原市",
        "state": "長崎県",
        "latitude": "32.6597338",
        "longitude": "130.2976992"
    },
    {
        "name": "波佐見町",
        "state": "長崎県",
        "latitude": "33.1328355",
        "longitude": "129.8999115"
    },
    {
        "name": "平戸市",
        "state": "長崎県",
        "latitude": "33.3680705",
        "longitude": "129.5539153"
    },
    {
        "name": "諫早市",
        "state": "長崎県",
        "latitude": "32.843426",
        "longitude": "130.0530537"
    },
    {
        "name": "えびの市",
        "state": "宮崎県",
        "latitude": "32.0454996",
        "longitude": "130.8109782"
    },
    {
        "name": "綾町",
        "state": "宮崎県",
        "latitude": "32.051477",
        "longitude": "131.2144295"
    },
    {
        "name": "延岡市",
        "state": "宮崎県",
        "latitude": "32.5823063",
        "longitude": "131.6649034"
    },
    {
        "name": "宮崎市",
        "state": "宮崎県",
        "latitude": "31.9076334",
        "longitude": "131.4204022"
    },
    {
        "name": "串間市",
        "state": "宮崎県",
        "latitude": "31.4649768",
        "longitude": "131.2282568"
    },
    {
        "name": "五ヶ瀬町",
        "state": "宮崎県",
        "latitude": "32.6509305",
        "longitude": "131.18703"
    },
    {
        "name": "高原町",
        "state": "宮崎県",
        "latitude": "31.927877",
        "longitude": "131.0078365"
    },
    {
        "name": "高千穂町",
        "state": "宮崎県",
        "latitude": "32.731215",
        "longitude": "131.32383"
    },
    {
        "name": "高鍋町",
        "state": "宮崎県",
        "latitude": "32.1294685",
        "longitude": "131.4933645"
    },
    {
        "name": "国富町",
        "state": "宮崎県",
        "latitude": "32.0486435",
        "longitude": "131.2889235"
    },
    {
        "name": "三股町",
        "state": "宮崎県",
        "latitude": "31.7323224",
        "longitude": "131.2030703"
    },
    {
        "name": "諸塚村",
        "state": "宮崎県",
        "latitude": "32.552681",
        "longitude": "131.309818"
    },
    {
        "name": "小林市",
        "state": "宮崎県",
        "latitude": "31.9966841",
        "longitude": "130.9731456"
    },
    {
        "name": "新富町",
        "state": "宮崎県",
        "latitude": "32.078452",
        "longitude": "131.4723142"
    },
    {
        "name": "西都市",
        "state": "宮崎県",
        "latitude": "32.1086073",
        "longitude": "131.4012532"
    },
    {
        "name": "西米良村",
        "state": "宮崎県",
        "latitude": "32.2225235",
        "longitude": "131.1618825"
    },
    {
        "name": "川南町",
        "state": "宮崎県",
        "latitude": "32.209858",
        "longitude": "131.5058035"
    },
    {
        "name": "椎葉村",
        "state": "宮崎県",
        "latitude": "32.4516445",
        "longitude": "131.152641"
    },
    {
        "name": "都城市",
        "state": "宮崎県",
        "latitude": "31.7196106",
        "longitude": "131.0612029"
    },
    {
        "name": "都農町",
        "state": "宮崎県",
        "latitude": "32.276118",
        "longitude": "131.5081985"
    },
    {
        "name": "日向市",
        "state": "宮崎県",
        "latitude": "32.4225483",
        "longitude": "131.6244443"
    },
    {
        "name": "日南市",
        "state": "宮崎県",
        "latitude": "31.6019221",
        "longitude": "131.3788769"
    },
    {
        "name": "日之影町",
        "state": "宮崎県",
        "latitude": "32.698567",
        "longitude": "131.4137315"
    },
    {
        "name": "美郷町",
        "state": "宮崎県",
        "latitude": "32.438826",
        "longitude": "131.3633515"
    },
    {
        "name": "木城町",
        "state": "宮崎県",
        "latitude": "32.2102277",
        "longitude": "131.4231524"
    },
    {
        "name": "門川町",
        "state": "宮崎県",
        "latitude": "32.4920978",
        "longitude": "131.6197077"
    },
    {
        "name": "あさぎり町",
        "state": "熊本県",
        "latitude": "32.220852",
        "longitude": "130.9216815"
    },
    {
        "name": "阿蘇市",
        "state": "熊本県",
        "latitude": "32.9524903",
        "longitude": "131.1214674"
    },
    {
        "name": "芦北町",
        "state": "熊本県",
        "latitude": "32.2963945",
        "longitude": "130.5465555"
    },
    {
        "name": "宇城市",
        "state": "熊本県",
        "latitude": "32.647181",
        "longitude": "130.6839693"
    },
    {
        "name": "宇土市",
        "state": "熊本県",
        "latitude": "32.6879177",
        "longitude": "130.6598222"
    },
    {
        "name": "益城町",
        "state": "熊本県",
        "latitude": "32.789501",
        "longitude": "130.837755"
    },
    {
        "name": "嘉島町",
        "state": "熊本県",
        "latitude": "32.749093",
        "longitude": "130.76052"
    },
    {
        "name": "菊池市",
        "state": "熊本県",
        "latitude": "32.9798234",
        "longitude": "130.8131987"
    },
    {
        "name": "菊陽町",
        "state": "熊本県",
        "latitude": "32.8594165",
        "longitude": "130.8114705"
    },
    {
        "name": "球磨村",
        "state": "熊本県",
        "latitude": "32.264947",
        "longitude": "130.6568625"
    },
    {
        "name": "玉東町",
        "state": "熊本県",
        "latitude": "32.9026379",
        "longitude": "130.6291209"
    },
    {
        "name": "玉名市",
        "state": "熊本県",
        "latitude": "32.9352591",
        "longitude": "130.5628137"
    },
    {
        "name": "錦町",
        "state": "熊本県",
        "latitude": "32.186368",
        "longitude": "130.8473265"
    },
    {
        "name": "五木村",
        "state": "熊本県",
        "latitude": "32.4203515",
        "longitude": "130.8407515"
    },
    {
        "name": "御船町",
        "state": "熊本県",
        "latitude": "32.710117",
        "longitude": "130.822802"
    },
    {
        "name": "甲佐町",
        "state": "熊本県",
        "latitude": "32.66589",
        "longitude": "130.818283"
    },
    {
        "name": "荒尾市",
        "state": "熊本県",
        "latitude": "32.9867584",
        "longitude": "130.4334027"
    },
    {
        "name": "高森町",
        "state": "熊本県",
        "latitude": "32.840688",
        "longitude": "131.204628"
    },
    {
        "name": "合志市",
        "state": "熊本県",
        "latitude": "32.8859288",
        "longitude": "130.7899793"
    },
    {
        "name": "山江村",
        "state": "熊本県",
        "latitude": "32.3104025",
        "longitude": "130.7547825"
    },
    {
        "name": "山鹿市",
        "state": "熊本県",
        "latitude": "33.0177456",
        "longitude": "130.6911907"
    },
    {
        "name": "山都町",
        "state": "熊本県",
        "latitude": "32.699616",
        "longitude": "131.049859"
    },
    {
        "name": "産山村",
        "state": "熊本県",
        "latitude": "33.015436",
        "longitude": "131.207474"
    },
    {
        "name": "小国町",
        "state": "熊本県",
        "latitude": "33.144624",
        "longitude": "131.075741"
    },
    {
        "name": "上天草市",
        "state": "熊本県",
        "latitude": "32.4963015",
        "longitude": "130.3960215"
    },
    {
        "name": "人吉市",
        "state": "熊本県",
        "latitude": "32.2100964",
        "longitude": "130.7628078"
    },
    {
        "name": "水上村",
        "state": "熊本県",
        "latitude": "32.3715235",
        "longitude": "131.0253255"
    },
    {
        "name": "水俣市",
        "state": "熊本県",
        "latitude": "32.2123376",
        "longitude": "130.4087616"
    },
    {
        "name": "西原村",
        "state": "熊本県",
        "latitude": "32.823477",
        "longitude": "130.933592"
    },
    {
        "name": "相良村",
        "state": "熊本県",
        "latitude": "32.291777",
        "longitude": "130.838558"
    },
    {
        "name": "多良木町",
        "state": "熊本県",
        "latitude": "32.2032884",
        "longitude": "131.0139648"
    },
    {
        "name": "大津町",
        "state": "熊本県",
        "latitude": "32.894173",
        "longitude": "130.9102983"
    },
    {
        "name": "長洲町",
        "state": "熊本県",
        "latitude": "32.926566",
        "longitude": "130.4682155"
    },
    {
        "name": "津奈木町",
        "state": "熊本県",
        "latitude": "32.2538983",
        "longitude": "130.4594299"
    },
    {
        "name": "天草市",
        "state": "熊本県",
        "latitude": "32.4585127",
        "longitude": "130.1930487"
    },
    {
        "name": "湯前町",
        "state": "熊本県",
        "latitude": "32.274687",
        "longitude": "131.009295"
    },
    {
        "name": "南阿蘇村",
        "state": "熊本県",
        "latitude": "32.8469382",
        "longitude": "131.0325835"
    },
    {
        "name": "南関町",
        "state": "熊本県",
        "latitude": "33.0375098",
        "longitude": "130.54872"
    },
    {
        "name": "南小国町",
        "state": "熊本県",
        "latitude": "33.0678445",
        "longitude": "131.0984205"
    },
    {
        "name": "八代市",
        "state": "熊本県",
        "latitude": "32.5081425",
        "longitude": "130.6020211"
    },
    {
        "name": "美里町",
        "state": "熊本県",
        "latitude": "32.6128355",
        "longitude": "130.8754975"
    },
    {
        "name": "氷川町",
        "state": "熊本県",
        "latitude": "32.5880834",
        "longitude": "130.6689794"
    },
    {
        "name": "苓北町",
        "state": "熊本県",
        "latitude": "32.4862145",
        "longitude": "130.0692295"
    },
    {
        "name": "和水町",
        "state": "熊本県",
        "latitude": "33.0286345",
        "longitude": "130.609985"
    },
    {
        "name": "熊本市",
        "state": "熊本県",
        "latitude": "32.7833323",
        "longitude": "130.7333361"
    },
    {
        "name": "いちき串木野市",
        "state": "鹿児島県",
        "latitude": "31.7146024",
        "longitude": "130.2721599"
    },
    {
        "name": "さつま町",
        "state": "鹿児島県",
        "latitude": "31.90688",
        "longitude": "130.452724"
    },
    {
        "name": "阿久根市",
        "state": "鹿児島県",
        "latitude": "32.0143139",
        "longitude": "130.1927415"
    },
    {
        "name": "姶良市",
        "state": "鹿児島県",
        "latitude": "31.7281236",
        "longitude": "130.6281055"
    },
    {
        "name": "伊佐市",
        "state": "鹿児島県",
        "latitude": "32.0569877",
        "longitude": "130.6130906"
    },
    {
        "name": "伊仙町old",
        "state": "鹿児島県",
        "latitude": "27.7495185",
        "longitude": "128.90142337699115"
    },
    {
        "name": "屋久島町",
        "state": "鹿児島県",
        "latitude": "30.346862",
        "longitude": "130.500281"
    },
    {
        "name": "肝付町",
        "state": "鹿児島県",
        "latitude": "31.298604",
        "longitude": "130.972192"
    },
    {
        "name": "錦江町",
        "state": "鹿児島県",
        "latitude": "31.217445",
        "longitude": "130.865345"
    },
    {
        "name": "薩摩川内市",
        "state": "鹿児島県",
        "latitude": "31.813421",
        "longitude": "130.3039789"
    },
    {
        "name": "三島村",
        "state": "鹿児島県",
        "latitude": "30.7839552",
        "longitude": "130.2695898"
    },
    {
        "name": "志布志市",
        "state": "鹿児島県",
        "latitude": "31.4953083",
        "longitude": "131.0456478"
    },
    {
        "name": "指宿市",
        "state": "鹿児島県",
        "latitude": "31.2527953",
        "longitude": "130.6333097"
    },
    {
        "name": "鹿児島市",
        "state": "鹿児島県",
        "latitude": "31.5841689",
        "longitude": "130.543387"
    },
    {
        "name": "鹿屋市",
        "state": "鹿児島県",
        "latitude": "31.3780472",
        "longitude": "130.8525167"
    },
    {
        "name": "十島村",
        "state": "鹿児島県",
        "latitude": "29.6119919",
        "longitude": "129.7048697"
    },
    {
        "name": "出水市",
        "state": "鹿児島県",
        "latitude": "32.0903005",
        "longitude": "130.3531204"
    },
    {
        "name": "垂水市",
        "state": "鹿児島県",
        "latitude": "31.4926939",
        "longitude": "130.7012264"
    },
    {
        "name": "瀬戸内町",
        "state": "鹿児島県",
        "latitude": "28.159287",
        "longitude": "129.310858"
    },
    {
        "name": "西之表市",
        "state": "鹿児島県",
        "latitude": "30.7325356",
        "longitude": "130.9970786"
    },
    {
        "name": "曽於市",
        "state": "鹿児島県",
        "latitude": "31.6535068",
        "longitude": "131.0194108"
    },
    {
        "name": "大崎町",
        "state": "鹿児島県",
        "latitude": "31.443611",
        "longitude": "130.984002"
    },
    {
        "name": "大和村",
        "state": "鹿児島県",
        "latitude": "28.329164",
        "longitude": "129.3423209"
    },
    {
        "name": "知名町",
        "state": "鹿児島県",
        "latitude": "27.343615",
        "longitude": "128.568063"
    },
    {
        "name": "中種子町",
        "state": "鹿児島県",
        "latitude": "30.5333044",
        "longitude": "130.9585896"
    },
    {
        "name": "長島町",
        "state": "鹿児島県",
        "latitude": "32.183459",
        "longitude": "130.166311"
    },
    {
        "name": "天城町",
        "state": "鹿児島県",
        "latitude": "27.818004",
        "longitude": "128.90815"
    },
    {
        "name": "東串良町",
        "state": "鹿児島県",
        "latitude": "31.379671",
        "longitude": "130.992875"
    },
    {
        "name": "徳之島町",
        "state": "鹿児島県",
        "latitude": "27.747012",
        "longitude": "129.002112"
    },
    {
        "name": "南さつま市",
        "state": "鹿児島県",
        "latitude": "31.4165805",
        "longitude": "130.3236567"
    },
    {
        "name": "南九州市",
        "state": "鹿児島県",
        "latitude": "31.3782842",
        "longitude": "130.4416754"
    },
    {
        "name": "南種子町",
        "state": "鹿児島県",
        "latitude": "30.411999",
        "longitude": "130.910254"
    },
    {
        "name": "南大隅町",
        "state": "鹿児島県",
        "latitude": "31.117059",
        "longitude": "130.774254"
    },
    {
        "name": "日置市",
        "state": "鹿児島県",
        "latitude": "31.6336972",
        "longitude": "130.4024361"
    },
    {
        "name": "枕崎市",
        "state": "鹿児島県",
        "latitude": "31.2728756",
        "longitude": "130.2970739"
    },
    {
        "name": "霧島市",
        "state": "鹿児島県",
        "latitude": "31.7410148",
        "longitude": "130.7632406"
    },
    {
        "name": "湧水町",
        "state": "鹿児島県",
        "latitude": "31.9685868",
        "longitude": "130.7308979"
    },
    {
        "name": "与論町",
        "state": "鹿児島県",
        "latitude": "27.043304",
        "longitude": "128.432748"
    },
    {
        "name": "龍郷町",
        "state": "鹿児島県",
        "latitude": "28.417921",
        "longitude": "129.57501"
    },
    {
        "name": "和泊町",
        "state": "鹿児島県",
        "latitude": "27.402221",
        "longitude": "128.646279"
    },
    {
        "name": "伊仙町",
        "state": "鹿児島県",
        "latitude": "27.6679356",
        "longitude": "128.9497335"
    },
    {
        "name": "奄美市",
        "state": "鹿児島県",
        "latitude": "28.3776614",
        "longitude": "129.4938985"
    },
    {
        "name": "宇検村",
        "state": "鹿児島県",
        "latitude": "28.2753644",
        "longitude": "129.3096959"
    },
    {
        "name": "喜界町",
        "state": "鹿児島県",
        "latitude": "28.321216",
        "longitude": "129.975103"
    },
    {
        "name": "邑楽町",
        "state": "群馬県",
        "latitude": "36.2529764",
        "longitude": "139.4614213"
    },
    {
        "name": "明和町",
        "state": "群馬県",
        "latitude": "36.2121257",
        "longitude": "139.5344251"
    },
    {
        "name": "みどり市",
        "state": "群馬県",
        "latitude": "36.3947988",
        "longitude": "139.2809736"
    },
    {
        "name": "桐生市",
        "state": "群馬県",
        "latitude": "36.4055296",
        "longitude": "139.3310209"
    },
    {
        "name": "伊勢崎市",
        "state": "群馬県",
        "latitude": "36.3111734",
        "longitude": "139.1968083"
    },
    {
        "name": "玉村町",
        "state": "群馬県",
        "latitude": "36.3044243",
        "longitude": "139.1150254"
    },
    {
        "name": "藤岡市",
        "state": "群馬県",
        "latitude": "36.258633",
        "longitude": "139.0745021"
    },
    {
        "name": "高崎市",
        "state": "群馬県",
        "latitude": "36.3220984",
        "longitude": "139.0032758"
    },
    {
        "name": "上野村",
        "state": "群馬県",
        "latitude": "36.0831883",
        "longitude": "138.7771654"
    },
    {
        "name": "神流町",
        "state": "群馬県",
        "latitude": "36.1159999",
        "longitude": "138.9167161"
    },
    {
        "name": "太田市",
        "state": "群馬県",
        "latitude": "36.2911561",
        "longitude": "139.3754233"
    },
    {
        "name": "安中市",
        "state": "群馬県",
        "latitude": "36.3263653",
        "longitude": "138.8878314"
    },
    {
        "name": "下仁田町",
        "state": "群馬県",
        "latitude": "36.2125268",
        "longitude": "138.7890443"
    },
    {
        "name": "渋川市",
        "state": "群馬県",
        "latitude": "36.4894606",
        "longitude": "139.0001287"
    },
    {
        "name": "前橋市",
        "state": "群馬県",
        "latitude": "36.3893418",
        "longitude": "139.0632826"
    },
    {
        "name": "沼田市",
        "state": "群馬県",
        "latitude": "36.6440697",
        "longitude": "139.0428829"
    },
    {
        "name": "富岡市",
        "state": "群馬県",
        "latitude": "36.2598266",
        "longitude": "138.8899792"
    },
    {
        "name": "草津町",
        "state": "群馬県",
        "latitude": "36.6206672",
        "longitude": "138.5960851"
    },
    {
        "name": "館林市",
        "state": "群馬県",
        "latitude": "36.2454338",
        "longitude": "139.5421576"
    },
    {
        "name": "板倉町",
        "state": "群馬県",
        "latitude": "36.2258899",
        "longitude": "139.6007924"
    },
    {
        "name": "片品村",
        "state": "群馬県",
        "latitude": "36.7723157",
        "longitude": "139.2252658"
    },
    {
        "name": "嬬恋村",
        "state": "群馬県",
        "latitude": "36.5168195",
        "longitude": "138.5301246"
    },
    {
        "name": "長野原町",
        "state": "群馬県",
        "latitude": "36.5437713",
        "longitude": "138.6499599"
    },
    {
        "name": "中之条町",
        "state": "群馬県",
        "latitude": "36.5898911",
        "longitude": "138.8409055"
    },
    {
        "name": "東吾妻町",
        "state": "群馬県",
        "latitude": "36.5715362",
        "longitude": "138.8204947"
    },
    {
        "name": "高山村",
        "state": "群馬県",
        "latitude": "36.62087",
        "longitude": "138.9433672"
    },
    {
        "name": "吉岡町",
        "state": "群馬県",
        "latitude": "36.4473875",
        "longitude": "139.0097126"
    },
    {
        "name": "榛東村",
        "state": "群馬県",
        "latitude": "36.4387691",
        "longitude": "138.9670983"
    },
    {
        "name": "南牧村",
        "state": "群馬県",
        "latitude": "36.1585062",
        "longitude": "138.7114001"
    },
    {
        "name": "甘楽町",
        "state": "群馬県",
        "latitude": "36.2428632",
        "longitude": "138.9216322"
    },
    {
        "name": "みなかみ町",
        "state": "群馬県",
        "latitude": "36.6785606",
        "longitude": "138.9991545"
    },
    {
        "name": "川場村",
        "state": "群馬県",
        "latitude": "36.694601",
        "longitude": "139.1066065"
    },
    {
        "name": "昭和村",
        "state": "群馬県",
        "latitude": "36.6397647",
        "longitude": "139.0658672"
    },
    {
        "name": "千代田町",
        "state": "群馬県",
        "latitude": "36.2179756",
        "longitude": "139.4431457"
    },
    {
        "name": "大泉町",
        "state": "群馬県",
        "latitude": "36.2477428",
        "longitude": "139.405421"
    },
    {
        "name": "伊根町",
        "state": "京都府",
        "latitude": "35.7146295",
        "longitude": "135.248496"
    },
    {
        "name": "京丹後市",
        "state": "京都府",
        "latitude": "35.6455135",
        "longitude": "135.0434555"
    },
    {
        "name": "宮津市",
        "state": "京都府",
        "latitude": "35.5815605",
        "longitude": "135.199274"
    },
    {
        "name": "与謝野町",
        "state": "京都府",
        "latitude": "35.525111",
        "longitude": "135.107169"
    },
    {
        "name": "福知山市",
        "state": "京都府",
        "latitude": "35.2966996",
        "longitude": "135.126643"
    },
    {
        "name": "綾部市",
        "state": "京都府",
        "latitude": "35.359169",
        "longitude": "135.353791"
    },
    {
        "name": "南丹市",
        "state": "京都府",
        "latitude": "35.2027706",
        "longitude": "135.51952"
    },
    {
        "name": "京丹波町",
        "state": "京都府",
        "latitude": "35.2219421",
        "longitude": "135.390637"
    },
    {
        "name": "亀岡市",
        "state": "京都府",
        "latitude": "35.0134403",
        "longitude": "135.5733728"
    },
    {
        "name": "京都市",
        "state": "京都府",
        "latitude": "35.021041",
        "longitude": "135.7556075"
    },
    {
        "name": "長岡京市",
        "state": "京都府",
        "latitude": "34.924418",
        "longitude": "135.680271"
    },
    {
        "name": "大山崎町",
        "state": "京都府",
        "latitude": "34.90439",
        "longitude": "135.686747"
    },
    {
        "name": "八幡市",
        "state": "京都府",
        "latitude": "34.860714",
        "longitude": "135.7164"
    },
    {
        "name": "向日市",
        "state": "京都府",
        "latitude": "34.9492795",
        "longitude": "135.700666"
    },
    {
        "name": "宇治市",
        "state": "京都府",
        "latitude": "34.8933744",
        "longitude": "135.8059219"
    },
    {
        "name": "久御山町",
        "state": "京都府",
        "latitude": "34.8882058",
        "longitude": "135.740302"
    },
    {
        "name": "城陽市",
        "state": "京都府",
        "latitude": "34.8457965",
        "longitude": "135.798831"
    },
    {
        "name": "宇治田原町",
        "state": "京都府",
        "latitude": "34.8536045",
        "longitude": "135.888241"
    },
    {
        "name": "井手町",
        "state": "京都府",
        "latitude": "34.8084491",
        "longitude": "135.8340929"
    },
    {
        "name": "和束町",
        "state": "京都府",
        "latitude": "34.809123",
        "longitude": "135.944418"
    },
    {
        "name": "木津川市",
        "state": "京都府",
        "latitude": "34.75455",
        "longitude": "135.848026"
    },
    {
        "name": "笠置町",
        "state": "京都府",
        "latitude": "34.767727",
        "longitude": "135.940789"
    },
    {
        "name": "南山城村",
        "state": "京都府",
        "latitude": "34.766",
        "longitude": "136.003521"
    },
    {
        "name": "精華町",
        "state": "京都府",
        "latitude": "34.7566235",
        "longitude": "135.77213"
    },
    {
        "name": "京田辺市",
        "state": "京都府",
        "latitude": "34.8029175",
        "longitude": "135.760651"
    },
    {
        "name": "舞鶴市",
        "state": "京都府",
        "latitude": "35.4704853",
        "longitude": "135.34844"
    },
    {
        "name": "いすみ市",
        "state": "千葉県",
        "latitude": "35.2539394",
        "longitude": "140.3849461"
    },
    {
        "name": "一宮町",
        "state": "千葉県",
        "latitude": "35.3728017",
        "longitude": "140.3686619"
    },
    {
        "name": "九十九里町",
        "state": "千葉県",
        "latitude": "35.5350845",
        "longitude": "140.4402007"
    },
    {
        "name": "佐倉市",
        "state": "千葉県",
        "latitude": "35.7234619",
        "longitude": "140.2240158"
    },
    {
        "name": "八千代市",
        "state": "千葉県",
        "latitude": "35.722537",
        "longitude": "140.0995131"
    },
    {
        "name": "八街市",
        "state": "千葉県",
        "latitude": "35.6658607",
        "longitude": "140.3178646"
    },
    {
        "name": "勝浦市",
        "state": "千葉県",
        "latitude": "35.1521846",
        "longitude": "140.3207449"
    },
    {
        "name": "匝瑳市",
        "state": "千葉県",
        "latitude": "35.70794",
        "longitude": "140.5645144"
    },
    {
        "name": "南房総市",
        "state": "千葉県",
        "latitude": "35.0387486",
        "longitude": "139.8371399"
    },
    {
        "name": "印西市",
        "state": "千葉県",
        "latitude": "35.8322582",
        "longitude": "140.1452981"
    },
    {
        "name": "君津市",
        "state": "千葉県",
        "latitude": "35.3302375",
        "longitude": "139.902551"
    },
    {
        "name": "四街道市",
        "state": "千葉県",
        "latitude": "35.6696551",
        "longitude": "140.1679445"
    },
    {
        "name": "多古町",
        "state": "千葉県",
        "latitude": "35.7357344",
        "longitude": "140.4677155"
    },
    {
        "name": "大多喜町",
        "state": "千葉県",
        "latitude": "35.2847921",
        "longitude": "140.2452603"
    },
    {
        "name": "大網白里市",
        "state": "千葉県",
        "latitude": "35.5216038",
        "longitude": "140.3208929"
    },
    {
        "name": "富津市",
        "state": "千葉県",
        "latitude": "35.3039146",
        "longitude": "139.8570499"
    },
    {
        "name": "富里市",
        "state": "千葉県",
        "latitude": "35.7268876",
        "longitude": "140.3430548"
    },
    {
        "name": "山武市",
        "state": "千葉県",
        "latitude": "35.602875",
        "longitude": "140.4134292"
    },
    {
        "name": "市原市",
        "state": "千葉県",
        "latitude": "35.497775",
        "longitude": "140.1156996"
    },
    {
        "name": "市川市",
        "state": "千葉県",
        "latitude": "35.729412",
        "longitude": "139.928568"
    },
    {
        "name": "御宿町",
        "state": "千葉県",
        "latitude": "35.1916611",
        "longitude": "140.3487766"
    },
    {
        "name": "成田市",
        "state": "千葉県",
        "latitude": "35.7767683",
        "longitude": "140.3183376"
    },
    {
        "name": "我孫子市",
        "state": "千葉県",
        "latitude": "35.863999",
        "longitude": "140.0280653"
    },
    {
        "name": "所属未定地",
        "state": "千葉県",
        "latitude": "35.66498875",
        "longitude": "139.9645925209275"
    },
    {
        "name": "旭市",
        "state": "千葉県",
        "latitude": "35.7204126",
        "longitude": "140.6464527"
    },
    {
        "name": "木更津市",
        "state": "千葉県",
        "latitude": "35.3759734",
        "longitude": "139.9166797"
    },
    {
        "name": "東庄町",
        "state": "千葉県",
        "latitude": "35.8371096",
        "longitude": "140.6688917"
    },
    {
        "name": "東金市",
        "state": "千葉県",
        "latitude": "35.5600309",
        "longitude": "140.3662589"
    },
    {
        "name": "松戸市",
        "state": "千葉県",
        "latitude": "35.7879371",
        "longitude": "139.903177"
    },
    {
        "name": "柏市",
        "state": "千葉県",
        "latitude": "35.8676218",
        "longitude": "139.9756876"
    },
    {
        "name": "栄町",
        "state": "千葉県",
        "latitude": "35.8410441",
        "longitude": "140.2441238"
    },