[
    {
        "name": "大阪府",
        "name_en": "Osaka Prefecture",
        "state": "大阪府",
        "id": 341906,
        "code": "27",
        "latitude": "34.6198813",
        "longitude": "135.490357"
    },
    {
        "name": "大分県",
        "name_en": "Oita Prefecture",
        "state": "大分県",
        "id": 356911,
        "code": "44",
        "latitude": "33.1819875",
        "longitude": "131.4270217"
    },
    {
        "name": "兵庫県",
        "name_en": "Hyogo Prefecture",
        "state": "兵庫県",
        "id": 356912,
        "code": "28",
        "latitude": "34.914934",
        "longitude": "134.860666"
    },
    {
        "name": "福井県",
        "name_en": "Fukui Prefecture",
        "state": "福井県",
        "id": 357112,
        "code": "18",
        "latitude": "35.9263502",
        "longitude": "136.6068127"
    },
    {
        "name": "滋賀県",
        "name_en": "Shiga Prefecture",
        "state": "滋賀県",
        "id": 357800,
        "code": "25",
        "latitude": "35.247154",
        "longitude": "136.109385"
    },
    {
        "name": "奈良県",
        "name_en": "Nara Prefecture",
        "state": "奈良県",
        "id": 358631,
        "code": "29",
        "latitude": "34.2963089",
        "longitude": "135.8816819"
    },
    {
        "name": "岐阜県",
        "name_en": "Gifu Prefecture",
        "state": "岐阜県",
        "id": 760746,
        "code": "21",
        "latitude": "35.7867449",
        "longitude": "137.0460777"
    },
    {
        "name": "三重県",
        "name_en": "Mie Prefecture",
        "state": "三重県",
        "id": 812190,
        "code": "24",
        "latitude": "34.7339685",
        "longitude": "136.5154489"
    },
    {
        "name": "和歌山県",
        "name_en": "Wakayama Prefecture",
        "state": "和歌山県",
        "id": 908959,
        "code": "30",
        "latitude": "33.8070292",
        "longitude": "135.5930743"
    },
    {
        "name": "東京都",
        "name_en": "Tokyo",
        "state": "東京都",
        "id": 1543125,
        "code": "13",
        "latitude": "35.6828387",
        "longitude": "139.7594549"
    },
    {
        "name": "福岡県",
        "name_en": "Fukuoka Prefecture",
        "state": "福岡県",
        "id": 1553735,
        "code": "40",
        "latitude": "33.6251241",
        "longitude": "130.6180016"
    },
    {
        "name": "埼玉県",
        "name_en": "Saitama Prefecture",
        "state": "埼玉県",
        "id": 1768185,
        "code": "11",
        "latitude": "35.9754168",
        "longitude": "139.4160114"
    },
    {
        "name": "福島県",
        "name_en": "Fukushima Prefecture",
        "state": "福島県",
        "id": 1800608,
        "code": "07",
        "latitude": "37.3662591",
        "longitude": "140.2511854"
    },
    {
        "name": "栃木県",
        "name_en": "Tochigi Prefecture",
        "state": "栃木県",
        "id": 1800742,
        "code": "09",
        "latitude": "36.6782167",
        "longitude": "139.8096549"
    },
    {
        "name": "青森県",
        "name_en": "Aomori Prefecture",
        "state": "青森県",
        "id": 1834655,
        "code": "02",
        "latitude": "40.886943",
        "longitude": "140.590121"
    },
    {
        "name": "佐賀県",
        "name_en": "Saga Prefecture",
        "state": "佐賀県",
        "id": 1842150,
        "code": "41",
        "latitude": "33.2185408",
        "longitude": "130.1296585"
    },
    {
        "name": "長崎県",
        "name_en": "Nagasaki Prefecture",
        "state": "長崎県",
        "id": 1842151,
        "code": "42",
        "latitude": "33.1154683",
        "longitude": "129.7874339"
    },
    {
        "name": "宮崎県",
        "name_en": "Miyazaki Prefecture",
        "state": "宮崎県",
        "id": 1842184,
        "code": "45",
        "latitude": "32.097681",
        "longitude": "131.294542"
    },
    {
        "name": "熊本県",
        "name_en": "Kumamoto Prefecture",
        "state": "熊本県",
        "id": 1842185,
        "code": "43",
        "latitude": "32.6450475",
        "longitude": "130.6341345"
    },
    {
        "name": "鹿児島県",
        "name_en": "Kagoshima Prefecture",
        "state": "鹿児島県",
        "id": 1842186,
        "code": "46",
        "latitude": "31.521587",
        "longitude": "130.5474077"
    },
    {
        "name": "群馬県",
        "name_en": "Gunma Prefecture",
        "state": "群馬県",
        "id": 1851649,
        "code": "10",
        "latitude": "36.52198",
        "longitude": "139.033483"
    },
    {
        "name": "京都府",
        "name_en": "Kyoto Prefecture",
        "state": "京都府",
        "id": 2137477,
        "code": "26",
        "latitude": "35.242552",
        "longitude": "135.454601"
    },
    {
        "name": "千葉県",
        "name_en": "Chiba Prefecture",
        "state": "千葉県",
        "id": 2679957,
        "code": "12",
        "latitude": "35.549399",
        "longitude": "140.2647303"
    },
    {
        "name": "茨城県",
        "name_en": "Ibaraki Prefecture",
        "state": "茨城県",
        "id": 2682940,
        "code": "08",
        "latitude": "36.2869536",
        "longitude": "140.4703384"
    },
    {
        "name": "神奈川県",
        "name_en": "Kanagawa Prefecture",
        "state": "神奈川県",
        "id": 2689487,
        "code": "14",
        "latitude": "35.4342935",
        "longitude": "139.374753"
    },
    {
        "name": "広島県",
        "name_en": "Hiroshima Prefecture",
        "state": "広島県",
        "id": 3218753,
        "code": "34",
        "latitude": "34.5666725",
        "longitude": "132.753565"
    },
    {
        "name": "鳥取県",
        "name_en": "Tottori Prefecture",
        "state": "鳥取県",
        "id": 3285636,
        "code": "31",
        "latitude": "35.3555075",
        "longitude": "133.8678525"
    },
    {
        "name": "島根県",
        "name_en": "Shimane Prefecture",
        "state": "島根県",
        "id": 3346137,
        "code": "32",
        "latitude": "34.9418212",
        "longitude": "132.537439"
    },
    {
        "name": "新潟県",
        "name_en": "Niigata Prefecture",
        "state": "新潟県",
        "id": 3559887,
        "code": "15",
        "latitude": "37.6452283",
        "longitude": "138.7669125"
    },
    {
        "name": "長野県",
        "name_en": "Nagano Prefecture",
        "state": "長野県",
        "id": 3560284,
        "code": "20",
        "latitude": "36.1143945",
        "longitude": "138.0319015"
    },
    {
        "name": "愛知県",
        "name_en": "Aichi Prefecture",
        "state": "愛知県",
        "id": 3560336,
        "code": "23",
        "latitude": "34.9991645",
        "longitude": "137.254574"
    },
    {
        "name": "山梨県",
        "name_en": "Yamanashi Prefecture",
        "state": "山梨県",
        "id": 3578391,
        "code": "19",
        "latitude": "35.6399328",
        "longitude": "138.6380495"
    },
    {
        "name": "宮城県",
        "name_en": "Miyagi Prefecture",
        "state": "宮城県",
        "id": 3790801,
        "code": "04",
        "latitude": "38.3880155",
        "longitude": "140.9761025"
    },
    {
        "name": "山形県",
        "name_en": "Yamagata Prefecture",
        "state": "山形県",
        "id": 3790869,
        "code": "06",
        "latitude": "38.4746705",
        "longitude": "140.083237"
    },
    {
        "name": "秋田県",
        "name_en": "Akita Prefecture",
        "state": "秋田県",
        "id": 3791413,
        "code": "05",
        "latitude": "39.6898802",
        "longitude": "140.342608"
    },
    {
        "name": "岩手県",
        "name_en": "Iwate Prefecture",
        "state": "岩手県",
        "id": 3792412,
        "code": "03",
        "latitude": "39.5713763",
        "longitude": "141.4253574"
    },
    {
        "name": "富山県",
        "name_en": "Toyama Prefecture",
        "state": "富山県",
        "id": 3793529,
        "code": "16",
        "latitude": "36.6468015",
        "longitude": "137.2183531"
    },
    {
        "name": "静岡県",
        "name_en": "Shizuoka Prefecture",
        "state": "静岡県",
        "id": 3793581,
        "code": "22",
        "latitude": "34.9332488",
        "longitude": "138.0955398"
    },
    {
        "name": "石川県",
        "name_en": "Ishikawa Prefecture",
        "state": "石川県",
        "id": 3794726,
        "code": "17",
        "latitude": "36.9888678",
        "longitude": "136.8163563"
    },
    {
        "name": "岡山県",
        "name_en": "Okayama Prefecture",
        "state": "岡山県",
        "id": 3794962,
        "code": "33",
        "latitude": "34.8581334",
        "longitude": "133.7759256"
    },
    {
        "name": "徳島県",
        "name_en": "Tokushima Prefecture",
        "state": "徳島県",
        "id": 3795000,
        "code": "36",
        "latitude": "33.9196418",
        "longitude": "134.2509634"
    },
    {
        "name": "高知県",
        "name_en": "Kochi Prefecture",
        "state": "高知県",
        "id": 3795031,
        "code": "39",
        "latitude": "33.6569018",
        "longitude": "133.5606241"
    },
    {
        "name": "愛媛県",
        "name_en": "Ehime Prefecture",
        "state": "愛媛県",
        "id": 3795063,
        "code": "38",
        "latitude": "33.6013646",
        "longitude": "132.8185275"
    },
    {
        "name": "香川県",
        "name_en": "Kagawa Prefecture",
        "state": "香川県",
        "id": 3795064,
        "code": "37",
        "latitude": "34.2480104",
        "longitude": "134.0586579"
    },
    {
        "name": "沖縄県",
        "name_en": "Okinawa Prefecture",
        "state": "沖縄県",
        "id": 3795635,
        "code": "47",
        "latitude": "26.5707754",
        "longitude": "128.0255901"
    },
    {
        "name": "北海道",
        "name_en": "Hokkaido Prefecture",
        "state": "北海道",
        "id": 3795658,
        "code": "01",
        "latitude": "43.4519831",
        "longitude": "142.8197834"
    },
    {
        "name": "山口県",
        "name_en": "Yamaguchi Prefecture",
        "state": "山口県",
        "id": 4016543,
        "code": "35",
        "latitude": "34.2379614",
        "longitude": "131.5873845"
    }
]
